osm_type,osm_id,place,name,name:uk,wikidata,lat,lon
node,26150422,city,Kyiv,Київ,Q1899,50.4500336,30.5241361
node,26150436,city,Chernihiv,Чернігів,Q157053,51.494099,31.294332
node,26150437,city,Odesa,Одеса,Q1874,46.4843023,30.7322878
node,26150791,city,Lviv,Львів,Q36036,49.841952,24.0315921
node,26150796,town,Boryspil,Бориспіль,Q158910,50.3512101,30.95077
node,27121092,town,Bohodukhiv,Богодухів,Q889930,50.1601711,35.5220539
node,27121360,city,Poltava,Полтава,Q156747,49.5897423,34.5507948
node,27122099,town,Berestyn,Берестин,Q1104739,49.3741326,35.4494234
node,27122612,city,Zaporizhzhia,Запоріжжя,Q157835,47.8507859,35.1182867
node,27212295,city,Yevpatoriya,Евпатория,Q33345,45.1907635,33.3679049
node,29980666,city,Mariupol,Маріуполь,Q37133,47.0957648,37.5499621
node,36505064,town,Irpin,Ірпінь,Q71727,50.5206777,30.2448725
node,36507630,town,Vyshneve,Вишневе,Q997440,50.3917497,30.3678999
node,36507632,town,Boiarka,Боярка,Q891175,50.3356709,30.2847595
node,36564513,village,Petrushky,Петрушки,Q4361752,50.42165,30.162504
node,36564515,village,Dmytrivka,Дмитрівка,Q4162953,50.4605965,30.1757337
node,39682896,city,Donetsk,Донецьк,Q43070,48.0158753,37.8013407
node,60410873,city,Mykolaiv,Миколаїв,Q41572,46.9758615,31.9939666
node,70950474,town,Kurakhove,Курахове,Q1023513,47.9835214,37.2826414
node,111353560,city,Uzhhorod,Ужгород,Q156711,48.6223731,22.3022572
node,111366726,town,Chop,Чоп,Q219193,48.4313665,22.2063694
node,127834997,town,Chornobyl,Чорнобиль,Q129677,51.2705477,30.2195609
node,127835001,town,Prypiat,Прип’ять,Q170456,51.4059655,30.0573963
node,146498192,town,Zviahel,Звягель,Q149024,50.5917622,27.6066973
node,146541158,city,Rivne,Рівне,Q156739,50.6196175,26.2513165
node,146570870,city,Lutsk,Луцьк,Q7550,50.7450733,25.320078
node,146651245,town,Kovel,Ковель,Q156704,51.2120807,24.7088806
node,227045548,town,Hadiach,Гадяч,Q268638,50.3701299,33.9950534
node,247880583,town,Stryi,Стрий,Q158923,49.255875,23.8530863
node,248777764,town,Uman,Умань,Q208499,48.7497621,30.2203052
node,249633429,village,Oradivka,Орадівка,Q4335615,48.7720121,29.9889179
node,249633934,village,Palanka,Паланка,Q4342438,48.7331789,30.10288
node,249634006,village,Rozsishky,Розсішки,Q4398369,48.7800534,30.0344358
node,249634064,village,Veselivka,Веселівка,Q4109391,48.794537,30.071573
node,249634267,town,Verkhniachka,Верхнячка,Q2022715,48.829805,30.0417049
node,249634482,village,Mala Sevastianivka,Мала Севастянівка,Q4277316,48.7918486,29.915171
node,249635700,hamlet,Khasanivka,Хасанівка,Q4496433,48.6909854,30.0014636
node,249719662,village,Yahubets,Ягубець,Q4536227,48.7376011,29.9498761
node,249748477,city,Vinnytsia,Вінниця,Q157144,49.2320162,28.467975
node,249768184,village,Bahachivka,Багачівка,Q4074721,48.8610559,30.0895548
node,249769123,village,Botvynivka,Ботвинівка,Q4095147,48.9574922,30.0225387
node,249769289,village,Verbuvata,Вербувата,Q4107459,48.8207927,30.1041207
node,249769670,village,Hreblia,Гребля,Q4148320,48.9596164,30.0552376
node,250970957,village,Ositna,Осітна,Q4338411,48.6591084,30.0286095
node,250970965,village,Synytsia,Синиця,Q4420302,48.695683,30.070663
node,250971480,village,Penizhkove,Пеніжкове,Q4348435,48.8724203,30.0271292
node,251073791,city,Sevastopol,Севастополь,Q7525,44.6054434,33.5220842
node,251223522,city,Khmelnytskyi,Хмельницький,Q156717,49.4196404,26.9793793
node,252098339,city,Zhytomyr,Житомир,Q156713,50.2601065,28.6696281
node,252176252,city,Simferopol,Симферополь,Q19566,44.9521459,34.1024858
node,252417657,village,Zoriane,Зоряне,Q4194065,48.9282053,29.9878548
node,252417658,village,Ivanhorod,Івангород,Q7265327,48.8009869,29.8039148
node,252417660,village,Kozache,Козаче,Q4208222,48.810711,29.9019292
node,252417661,village,Lishchynivka,Ліщинівка,Q7241373,48.91,30.059999
node,252417662,hamlet,Mala Ivanivka,Мала Іванівка,Q4276899,48.85681,30.1051181
node,252417663,village,Zaiachkivka,Заячківка,Q4189183,48.7115175,29.9698715
node,252417664,village,Sychivka,Сичівка,Q4448303,48.8012639,29.8495338
node,253006651,town,Znamianka,Знам’янка,Q592145,48.7199609,32.6659476
node,253315888,town,Ochakiv,Очаків,Q850072,46.6145957,31.5452994
node,253874196,city,Luhansk,Луганськ,Q134279,48.5717084,39.2973153
node,253877159,city,Alchevsk,Алчевськ,Q161144,48.4701987,38.8010178
node,254262743,town,Truskavets,Трускавець,Q157440,49.2782012,23.5059668
node,254275595,town,Berehove,Берегове,Q146497,48.2050985,22.6453246
node,254292767,village,Makarove,Макарове,Q4275469,48.6778398,39.5136901
node,254554018,town,Alushta,Алушта,Q46001,44.677112,34.4095393
node,255259998,city,Bila Tserkva,Біла Церква,Q33342,49.7969703,30.1158069
node,255260767,town,Korostyshiv,Коростишів,Q149190,50.3201518,29.0584885
node,255466573,city,Kherson,Херсон,Q156732,46.6401295,32.6143922
node,256579283,town,Dzhankoy,Джанкой,Q161978,45.7119746,34.3927394
node,256613664,town,Mospyne,Моспине,Q2415358,47.8813092,38.0746792
node,256613666,village,Byriuky,Бирюки,Q4087096,47.86211,38.0835
node,256613669,village,Verbova Balka,Вербова Балка,Q4107462,47.8337459,38.0787182
node,256613670,village,Hryshky,Гришки,Q4149937,47.8774761,37.9969227
node,256613671,village,Mykhailivka,Михайлівка,Q4297509,47.8339758,38.135748
node,256613672,village,Novodvirske,Новодвірське,Q4323589,47.8417839,38.1460261
node,256613673,village,,Кисличе,Q4333198,47.91172,37.99724
node,256613675,village,Temriuk,Темрюк,Q4454570,47.89558,37.98591
node,256613676,town,Laryne,Ларине,Q4254546,47.88983,37.92884
node,256613677,village,Pavlohradske,Павлоградське,Q4341862,47.86331,37.94789
node,256613679,town,Bakhmut,Бахмут,Q706857,48.5894123,38.0020994
node,256613680,town,Krasna Hora,Красна Гора,Q4237920,48.6626919,38.0156184
node,256613683,town,Soledar,Соледар,Q2399843,48.6956698,38.0671791
node,256613727,town,Chasiv Yar,Часів Яр,Q2415330,48.5873911,37.8373367
node,256613739,village,Piatykhatky,П’ятихатки,Q4385885,48.2553016,38.0168837
node,256613740,city,Horlivka,Горлівка,Q157260,48.3058686,38.0027664
node,256613742,hamlet,Fedorivka,Федорівка,Q4494080,48.262396,38.0432807
node,256613745,town,Zaitseve,Зайцеве,Q4184477,48.40087,38.02643
node,256613746,village,Hladosove,Гладосове,Q4139335,48.42945,38.07655
node,256613748,hamlet,Riasne,Рясне,Q7212118,48.1705,38.01913
node,256613750,village,Mykhailivka,Михайлівка,Q4297502,48.2442929,37.975037
node,256613752,village,Ozerianivka,Озерянівка,Q4332176,48.2725613,38.0006983
node,256613753,village,Shyroka Balka,Широка Балка,Q4524325,48.3021074,37.9335517
node,256613754,hamlet,Stavky,Ставки,Q4438939,48.25212,37.93613
node,256613755,town,Myronivskyi,Миронівський,Q4296148,48.4620526,38.2754689
node,256613761,town,Debaltseve,Дебальцеве,Q2371760,48.3396839,38.3999096
node,256613774,town,Toretsk,Торецьк,Q2416525,48.3970469,37.8501378
node,256613798,town,Svitlodarsk,Світлодарськ,Q2493295,48.43803,38.22349
node,256613799,village,Dyliivka,Диліївка,Q4171560,48.4258909,37.8764262
node,256613800,village,Druzhba,Дружба,Q4168697,48.4071824,37.9170738
node,256613801,town,Pivnichne,Північне,Q4221569,48.3866143,37.9018986
node,256613802,village,Dachne,Дачне,Q4146171,48.4140395,37.8798218
node,256613803,town,Kurdiumivka,Курдюмівка,Q4248211,48.4683008,37.9568757
node,256613804,town,Pivdenne,Південне,Q4258428,48.3646625,37.9062824
node,256613805,village,Ozarianivka,Озарянівка,Q4359431,48.450343,37.9548643
node,256613806,village,Shumy,Шуми,Q4527849,48.38096,37.9333
node,256613808,village,Valentynivka,Валентинівка,Q4102815,48.3137965,37.7592083
node,256613809,village,Leonidivka,Леонідівка,Q4258806,48.3709755,37.7987389
node,256613810,town,Nelipivka,Неліпівка,Q4316732,48.3515143,37.8360936
node,256613811,town,Niu-York,Нью-Йорк,Q4322522,48.3320198,37.8365875
node,256613812,town,Novospaske,Новоспаське,Q4360989,48.3874267,37.7827946
node,256613813,town,Shcherbynivka,Щербинівка,Q4528953,48.3943714,37.7901336
node,256613814,village,Sukha Balka,Суха Балка,Q4446972,48.3267383,37.7646836
node,256613815,hamlet,Yurivka,Юр’ївка,Q4535268,48.3147822,37.8319631
node,256613816,village,Svitle,Світле,Q4410404,48.308507,37.2343542
node,256613817,town,Myrnohrad,Мирноград,Q45872,48.30791,37.2591
node,256613818,village,Krymske,Кримське,Q4242969,48.4096137,37.8664382
node,256613819,town,Zalizne,Залізне,Q1937296,48.3734757,37.8822759
node,256613820,town,Bilytske,Білицьке,Q2354480,48.4078477,37.176481
node,256613821,town,Novodonetske,Новодонецьке,Q4323663,48.6342604,36.9819183
node,256613822,town,Vodianske,Водянське,Q4114261,48.4107019,37.1048855
node,256613826,village,Yasne,Ясне,Q4539402,47.7726077,37.6346113
node,256613827,town,Dokuchaievsk,Докучаєвськ,Q2416554,47.7499257,37.6715943
node,256613829,village,Bokove,Бокове,Q4090588,48.5215494,37.0296629
node,256613830,town,Bilozerske,Білозерське,Q2351983,48.53313,37.05791
node,256613831,town,Novomykolaivka,Новомиколаївка,Q4324648,48.56335,37.37411
node,256613832,town,Novohryhorivka,Новогригорівка,Q4323496,48.5760732,37.4194003
node,256613833,town,Oleksiievo-Druzhkivka,Олексієво-Дружківка,Q4061852,48.5785754,37.6044657
node,256613834,town,Druzhkivka,Дружківка,Q157795,48.6198614,37.524945
node,256613836,town,Oleksandrivske,Олександрівське,Q2687231,48.27015,38.28564
node,256613837,town,Bulavynske,Булавинське,Q4098688,48.25298,38.3361
node,256613839,village,Druzhne,Дружне,Q4168866,48.19805,38.28186
node,256613840,town,Raiske,Райське,Q4389195,48.56987,37.46647
node,256613841,village,Krasnyi Kut,Красний Кут,Q4239499,48.55751,37.40604
node,256613842,village,Staroraiske,Старорайське,Q4440565,48.60927,37.44527
node,256613843,village,Druzhkivske,Дружківське,Q4512337,48.630669,37.588905
node,256613845,village,Verkhnia Krynka,Верхня Кринка,Q4108867,48.1826143,38.1311003
node,256613846,hamlet,,Кринички,Q4361335,48.16466,38.04651
node,256613847,hamlet,Puteprovid,Путепровід,Q4384234,48.15076,38.052
node,256613848,village,Shevchenko,Шевченко,Q4522124,48.17479,38.09046
node,256613849,town,,Софіївка,Q4215261,48.270333,38.144668
node,256613850,village,Novoselivka,Новоселівка,Q4325818,48.26457,38.11621
node,256613851,village,Staropetrivske,Старопетрівське,Q4440555,48.2131617,38.15276
node,256613852,town,Korsun,Корсунь,Q4234364,48.2044,38.0823
node,256613853,village,Illinka,Іллінка,Q4199624,48.2699914,38.4262531
node,256613854,village,Danylove,Данилове,Q4154756,48.2218427,38.4700614
node,256613855,village,Ridkodub,Рідкодуб,Q4392191,48.2686752,38.5235961
node,256613858,village,Kamianka,Кам’янка,Q4210932,48.2413338,38.4844814
node,256613859,village,Olenivka,Оленівка,Q4333615,48.2650449,38.2586109
node,256613860,village,Shchebenka,Щебенка,Q4528443,48.1929318,38.1374293
node,256613861,hamlet,Vesela Dolyna,Весела Долина,Q4109718,48.21127,38.43103
node,256613862,town,Olkhovatka,Ольховатка,Q4334213,48.2402552,38.4030646
node,256613868,hamlet,,Ступакове,Q4239577,48.284545,38.3075313
node,256613869,village,Kaiutyne,Каютине,Q4218370,48.3001,38.23465
node,256613870,town,,Бунге,Q570563,48.2213624,38.2875306
node,256613871,village,Savelivka,Савелівка,Q4403777,48.2938415,38.3432269
node,256613872,town,Vuhlehirsk,Вуглегірськ,Q1025478,48.3119524,38.2609048
node,256613873,village,Pryberezhne,Прибережне,Q4377700,48.2465195,38.3237055
node,256613874,hamlet,Hrozne,Грозне,Q4150095,48.2935602,38.3119509
node,256613875,hamlet,Bulavyne,Булавине,Q4098686,48.3026205,38.3580446
node,256613876,town,Staryi Krym,Старий Крим,Q4441079,47.1606073,37.4909237
node,256613877,town,Talakivka,Талаківка,Q4450302,47.1929562,37.7253016
node,256613884,village,Molodyi Shakhtar,Молодий Шахтар,Q4300678,48.10312,38.24744
node,256613885,town,Sartana,Сартана,Q782264,47.1701321,37.6952892
node,256613886,town,Zhdanivka,Жданівка,Q2354450,48.1570316,38.2565049
node,256613887,village,Vilkhivka,Вільхівка,Q4334269,48.11179,38.30624
node,256613888,hamlet,Avilovka,Авіловка,Q4055914,48.1983104,38.1736103
node,256613889,hamlet,Shaposhnykove,Шапошникове,Q4520342,48.1918329,38.1585856
node,256613893,town,Bilenke,Біленьке,Q4081840,48.7592059,37.6177633
node,256613896,town,Oleksandrivka,Олександрівка,Q4061255,48.7441375,37.4852491
node,256613898,town,Kostiantynivka,Костянтинівка,Q165243,48.534905,37.6923754
node,256613901,village,Hnutove,Гнутове,Q4140812,47.2069911,37.7501111
node,256613902,village,Lomakyne,Ломакине,Q4266097,47.1761023,37.7231459
node,256613903,town,Yasnohirka,Ясногірка,Q4539379,48.7786606,37.5536569
node,256613904,town,Yasna Poliana,Ясна Поляна,Q4539332,48.743929,37.5275786
node,256613905,town,Shabelkivka,Шабельківка,Q4519105,48.7506398,37.4907836
node,256613906,town,Sofiivka,Софіївка,Q4429956,48.7411144,37.513553
node,256613907,town,Malotaranivka,Малотаранівка,Q4278446,48.6675587,37.513494
node,256613908,village,Pryvillia,Привілля,Q4377916,48.71097,37.38304
node,256613909,town,Krasnotorka,Красноторка,Q4239123,48.6799109,37.5210322
node,256613910,town,Komyshuvakha,Комишуваха,Q4211884,48.64025,37.45582
node,256613911,village,Stavky,Ставки,Q4438946,49.04846,37.83485
node,256613912,village,Brusivka,Брусівка,Q4097267,48.9105244,37.7830943
node,256613913,town,Lyman,Лиман,Q2234641,48.9801314,37.8168012
node,256613914,town,Rodynske,Родинське,Q2416543,48.3539878,37.203369
node,256613915,town,Shevchenko,Шевченко,Q4522130,48.22191,37.14211
node,256613916,town,Pokrovsk,Покровськ,Q1000446,48.2771086,37.1772482
node,256613917,village,Semenivka,Семенівка,Q4415907,48.6679492,37.6490267
node,256613918,hamlet,Ashurkove,Ашуркове,Q4073585,48.6573719,37.634943
node,256613919,village,Lisne,Лісне,Q4259626,48.098031,38.1326344
node,256613920,village,Orikhove,Оріхове,Q4336313,48.10178,38.107712
node,256613921,town,Krynychna,Кринична,Q4241112,48.1284978,38.0275521
node,256613922,village,Lypske,Липське,Q4239549,48.08201,38.14831
node,256613923,hamlet,Lebiazhe,Леб’яже,Q4256097,48.1864195,37.949912
node,256613924,hamlet,Vasylivka,Василівка,Q4104244,48.1832284,37.9662387
node,256613925,village,Vuhliar,Вугляр,Q4128221,48.01609,38.05956
node,256613926,village,Maiak,Маяк,Q4286328,47.9713858,38.016858
node,256613927,village,Shchurove,Щурове,Q4529246,48.9551375,37.7248258
node,256613928,village,Staryi Karavan,Старий Караван,Q4441057,48.9218552,37.7819721
node,256613929,village,Zemlianky,Землянки,Q4191177,48.1230291,37.9067261
node,256613930,city,Makiivka,Макіївка,Q157134,48.0448144,37.9635093
node,256613931,village,Velyke Orikhove,Велике Оріхове,Q4106690,48.0863,38.133461
node,256613932,village,Yasynivka,Ясинівка,Q4539260,48.1341546,37.9476637
node,256613933,village,Lypove,Липове,Q4262824,48.0863716,38.1703236
node,256613934,town,Nyzhnia Krynka,Нижня Кринка,Q4319319,48.1137043,38.1665891
node,256613935,hamlet,Molocharka,Молочарка,Q4301022,48.00648,38.13243
node,256613948,village,Shevchenko,Шевченко,Q4522135,47.99188,38.08617
node,256613952,town,,Холодне,Q4410134,48.02759,38.06265
node,256613953,hamlet,Monakhove,Монахове,Q4301595,48.1501596,38.1145996
node,256613954,village,Verkhnia Krynka,Верхня Кринка,Q4108869,48.15505,38.15749
node,256613955,locality,Almazne,Алмазне,Q4062717,48.1431116,38.134425
node,256613956,village,Krasna Zoria,Красна Зоря,Q4237969,48.1407074,38.1169551
node,256613958,village,Vysoke,Високе,Q4129405,47.9448989,38.0570965
node,256613959,village,Hruzko-Zorianske,Грузько-Зорянське,Q4150591,47.94845,38.08273
node,256613960,village,Kholmyste,Холмисте,Q4499178,47.94056,38.10951
node,256613962,town,Hruzko-Lomivka,Грузько-Ломівка,Q4150593,47.90923,38.10548
node,256613964,village,Huselske,Гусельське,Q4152796,47.99506,38.11835
node,256613965,town,Kolosnykove,Колосникове,Q4228518,48.0456386,38.0611459
node,256613966,village,Mezhove,Межове,Q4288677,47.9661277,38.0707601
node,256613969,town,,П’ятипілля,Q4380543,48.0164708,38.0979234
node,256613977,town,Ukrainsk,Українськ,Q2496842,48.09471,37.35866
node,256613978,town,Hirnyk,Гірник,Q2621513,48.0567943,37.3723976
node,256613980,town,Tsukuryne,Цукурине,Q4506151,48.08433,37.3161
node,256613982,town,Hostre,Гостре,Q4119309,47.9935659,37.401683
node,256613983,town,Snizhne,Сніжне,Q1749424,48.0220754,38.7634612
node,256613985,town,Mykolaivka,Миколаївка,Q2415962,48.8610868,37.7619191
node,256613986,city,Sloviansk,Слов’янськ,Q33581,48.8522691,37.6058241
node,256613987,town,Novohrodivka,Новогродівка,Q376473,48.1997174,37.3399704
node,256613988,village,Novoselivka,Новоселівка,Q4325845,48.1659044,38.1362849
node,256613989,village,Novomarivka,Новомар’ївка,Q4324470,48.1509362,38.1464506
node,256613990,village,Novyi Svit,Новий Світ,Q4326777,48.14793,38.10367
node,256613991,town,Kurakhivka,Курахівка,Q4247821,48.02982,37.37171
node,256613992,town,Komyshivka,Комишівка,Q4211892,48.18062,37.46895
node,256613993,town,Vyshneve,Вишневе,Q4112863,48.1503178,37.2463197
node,256613994,town,Selydove,Селидове,Q951436,48.15015,37.3018921
node,256613995,town,Sieverne,Сєверне,Q4412161,48.0829812,38.6855636
node,256613996,village,Molchalyne,Молчалине,Q4301092,48.0600084,38.7116395
node,256613997,town,Pervomaiske,Первомайське,Q4349516,47.99446,38.77693
node,256613998,town,Pobieda,Побєда,Q4366173,47.97858,38.80843
node,256613999,town,Pelahiivka,Пелагіївка,Q4348165,48.09282,38.60887
node,256614000,town,Rozsypne,Розсипне,Q4390544,48.1303138,38.5664541
node,256614001,village,Sukhivske,Сухівське,Q4447172,48.0645252,38.7152186
node,256614002,town,Chystiakove,Чистякове,Q162084,48.0261217,38.618137
node,256614003,town,Hirnytske,Гірницьке,Q4144745,48.00433,38.83349
node,256614012,town,Zalisne,Залісне,Q4185199,48.03128,38.80981
node,256614035,town,Andriivka,Андріївка,Q4065645,48.11462,38.71719
node,256614036,town,Brazhyne,Бражине,Q4095675,47.9961594,38.8266259
node,256614037,town,Pervomaiskyi,Первомайський,Q4349342,47.9727591,38.7883867
node,256614038,hamlet,,Балка,Q4512414,47.97223,38.73625
node,256614039,town,Lymanchuk,Лиманчук,Q4261742,48.0148985,38.8246797
node,256614040,town,Nykyforove,Никифорове,Q4319973,48.00759,38.85418
node,256614041,village,Tsupky,Цупки,Q4506174,48.0059144,38.3452921
node,256614042,village,Vodobud,Водобуд,Q4114047,48.0239,38.22066
node,256614043,village,Vynohradne,Виноградне,Q4111687,47.9189206,38.2304894
node,256614045,town,Ilovaisk,Іловайськ,Q2415345,47.9248328,38.1976205
node,256614047,village,Pivche,Півче,Q4347767,47.98965,38.31001
node,256614049,town,Shyroke,Широке,Q4524449,47.95738,38.2307
node,256614050,village,Mykolaivka,Миколаївка,Q4320374,48.0011372,38.2457047
node,256614066,town,Zuivka,Зуївка,Q4194599,48.0624786,38.250382
node,256614067,town,Troitsko-Khartsyzk,Троїцько-Харцизьк,Q4463576,47.9688438,38.2677278
node,256614068,town,Pokrovka,Покровка,Q4369200,47.93472,38.27843
node,256614069,town,Khartsyzk,Харцизьк,Q1003757,48.0339524,38.149804
node,256614070,town,Vuhledar,Вугледар,Q2416423,47.7809924,37.2460771
node,256614071,town,Hirne,Гірне,Q4119436,48.06081,38.1974
node,256614072,town,,Благодатне,Q7293235,47.9678372,38.2103002
node,256614073,village,Viktoriia,Вікторія,Q4111041,48.06793,38.48545
node,256614074,village,Hirne,Гірне,Q4144595,48.03712,38.54622
node,256614075,village,Dorofiienko,Дорофієнко,Q4166988,48.0709769,38.4710424
node,256614076,village,Zarichne,Зарічне,Q4187262,48.0642203,38.5119453
node,256614078,town,Stizhkivske,Стіжківське,Q4442750,48.1184,38.4724
node,256614081,locality,,Буруцького,Q12085831,48.1193411,38.4098083
node,256614084,village,Vinnytske,Вінницьке,Q4111623,48.094835,38.4503003
node,256614087,village,Chumaky,Чумаки,Q4517993,48.0973205,38.4782962
node,256614088,town,,Куликівське,Q4304370,48.1097333,38.54055
node,256614089,town,Serdyte,Сердите,Q4417210,48.04047,38.39439
node,256614090,village,Dubove,Дубове,Q4169457,47.99343,38.41541
node,256614091,village,Lobanivka,Лобанівка,Q4264644,48.0721316,38.3727879
node,256614092,village,Tretiaky,Третяки,Q4462733,47.91318,38.20616
node,256614096,hamlet,Vedmezhe,Ведмеже,Q4287544,48.0353247,38.1918744
node,256614098,town,Shakhtarsk,Шахтарськ,Q29756,48.0550423,38.4459474
node,256614099,town,Kontarne,Контарне,Q4231621,48.0894051,38.5106493
node,256614100,village,Sofiino-Lyman,Софіїно-Лиман,Q4430110,48.69381,36.97723
node,256614101,village,Rozdollia,Роздолля,Q4388437,48.69106,37.00401
node,256614102,village,Novostepanivka,Новостепанівка,Q4325612,48.68282,37.0277
node,256614105,village,Novoandriivka,Новоандріївка,Q4323131,48.6775054,37.054677
node,256614109,village,Dmytrokolyne,Дмитроколине,Q4163051,48.6850813,36.97655
node,256614114,village,Bezzabotivka,Беззаботівка,Q4080891,48.68763,37.02633
node,256614119,village,Sofiivka,Софіївка,Q4429935,48.70514,36.86291
node,256614126,village,Petrivka Persha,Петрівка Перша,Q4361092,48.7002591,36.89398
node,256614128,village,Novopoltavka,Новополтавка,Q4325021,48.69321,36.85827
node,256614129,village,,Надія,Q4311910,48.73947,36.9717399
node,256614130,village,Levadne,Левадне,Q4256191,48.6842,36.81656
node,256614131,village,Dmytro-Darivka,Дмитро-Дар’ївка,Q4162918,48.76728,36.96178
node,256614132,village,Varvarivka,Варварівка,Q4103616,48.77449,36.92745
node,256614133,town,Oleksandrivka,Олександрівка,Q4061193,48.7073967,36.9207752
node,256614136,town,Yasynuvata,Ясинувата,Q1020077,48.1270606,37.8590172
node,256614140,hamlet,Kyshchenko,Кищенко,Q4222711,48.0875408,38.4673144
node,256614141,village,Lvivka,Львівка,Q4271016,48.76007,37.30854
node,256614142,village,Shavrove,Шаврове,Q4519249,48.7413193,37.1944052
node,256614143,village,Novoznamenivka,Новознаменівка,Q4324039,48.60351,36.83819
node,256614144,village,Mykhailivka,Михайлівка,Q4297452,48.7442056,37.2711814
node,256614148,hamlet,Buzynivka,Бузинівка,Q4098364,48.6323598,36.76023
node,256614151,village,Marivka,Мар’ївка,Q4283368,48.6156974,36.7830753
node,256614154,hamlet,Fedorivka,Федорівка,Q4494055,48.6510826,37.0826978
node,256614157,village,Myrna Dolyna,Мирна Долина,Q4295694,48.5990903,36.8316362
node,256614161,village,Krynytsi,Криниці,Q4241074,48.65974,37.12306
node,256614165,village,Kuroidivka,Куроїдівка,Q4248702,48.62866,37.0598
node,256614173,village,Shostakivka,Шостаківка,Q4523318,48.67218,36.91578
node,256614177,village,Zoloti Prudy,Золоті Пруди,Q4193656,48.72436,37.03594
node,256614180,village,Iverske,Іверське,Q4197147,48.6384179,36.9531698
node,256614184,village,Novosamarske,Новосамарське,Q4325230,48.689,36.93775
node,256614188,village,Vysokopillia,Високопілля,Q4129473,48.7704729,37.0735965
node,256614192,village,Zaparo-Marivka,Запаро-Мар’ївка,Q4186619,48.8002279,37.047714
node,256614196,village,Spasko-Mykhailivka,Спасько-Михайлівка,Q4430941,48.57365,36.9405
node,256614200,village,Novoiavlenka,Новоявленка,Q4326286,48.63665,37.19696
node,256614204,village,Vesela Hora,Весела Гора,Q4109712,48.61862,37.1228
node,256614210,village,Samarske,Самарське,Q4406441,48.6339211,37.10354
node,256614214,hamlet,Novoserhiivka,Новосергіївка,Q4325406,48.5395773,36.9148978
node,256614217,village,Novopetrivka,Новопетрівка,Q4324898,48.59364,36.8726
node,256614221,village,Kurytsyne,Курицине,Q7247666,48.56264,36.993531
node,256614225,village,Katerynivka,Катеринівка,Q4217303,48.5848097,36.887381
node,256614229,village,Novopavlivka,Новопавлівка,Q4324806,48.58429,37.02736
node,256614240,village,Novoiverske,Новоіверське,Q4324109,48.60111,36.96041
node,256614248,village,Stepanivka,Степанівка,Q4441883,48.6077434,37.0255086
node,256614253,hamlet,Shevchenko,Шевченко,Q4522101,48.6224,36.86291
node,256614257,town,Amvrosiivka,Амвросіївка,Q1996358,47.7952806,38.4798317
node,256614261,village,Yakovlivka,Яковлівка,Q4536984,48.70273,37.24743
node,256614265,village,Starovarvarivka,Староварварівка,Q4440119,48.68179,37.23095
node,256614269,village,Samiilivka,Самійлівка,Q4406753,48.5877141,36.988792
node,256614273,village,Znamenivka,Знаменівка,Q4192777,48.667225,36.729233
node,256614277,village,Pasichne,Пасічне,Q4346448,48.6979971,36.7983707
node,256614284,village,Mykilske,Микільське,Q4320948,48.68763,36.77845
node,256614291,village,Zelenyi Brid,Зелений Брід,Q4190788,48.695692,36.745762
node,256614295,village,Novooleksandrivka,Новоолександрівка,Q4323010,48.7675154,36.8464711
node,256614299,village,Yelyzavetivka,Єлизаветівка,Q4174824,48.7755818,36.8489494
node,256614303,village,Petrivka Druha,Петрівка Друга,Q4361087,48.6787,36.78154
node,256614307,village,Nekremenne,Некременне,Q4316655,48.8213549,37.1343777
node,256614311,village,Novyi Kavkaz,Новий Кавказ,Q4326660,48.7544295,36.8602611
node,256614315,village,Novobakhmetieve,Новобахметьєве,Q4323201,48.74084,36.83578
node,256614319,village,Zelene,Зелене,Q4190682,48.7635,36.78326
node,256614322,village,Karpivka,Карпівка,Q4215872,48.79749,36.74068
node,256614326,village,Holubivka,Голубівка,Q4142477,48.6980761,37.1320262
node,256614329,village,Hromova Balka,Громова Балка,Q4150233,48.7153303,37.0821724
node,256614333,hamlet,Novopryhozhe,Новопригоже,Q4325063,48.7835899,36.76918
node,256614337,village,Ocheretyne,Очеретине,Q4340681,48.7396015,37.1205133
node,256614341,village,Zhytenko,Житенко,Q4180623,47.79825,38.69024
node,256614345,village,Biloiarivka,Білоярівка,Q4082955,47.796523,38.6021993
node,256614349,village,Serhiieve-Krynka,Сергієве-Кринка,Q4416938,47.77302,38.66157
node,256614357,village,Nyzhnokrynske,Нижньокринське,Q4318879,47.78366,38.62518
node,256614360,village,Velyke Mishkove,Велике Мішкове,Q4106689,47.8729202,38.5578484
node,256614364,village,Blahodatne,Благодатне,Q4087834,47.881164,38.4866895
node,256614368,village,,Калинове,Q4236260,47.85198,38.41507
node,256614372,village,Zhukova Balka,Жукова Балка,Q4181440,47.79937,38.40048
node,256614375,village,Novoklynivka,Новоклинівка,Q4324234,47.85816,38.45112
node,256614379,village,Mala Shyshivka,Мала Шишівка,Q4277517,47.919194,38.4888444
node,256614383,village,Rodnyky,Родники,Q4395918,47.83825,38.41919
node,256614387,village,,Садове,Q4324930,47.8777632,38.4132948
node,256614396,village,Siiatel,Сіятель,Q4418144,47.8908506,38.5210571
node,256614400,hamlet,Svystuny,Свистуни,Q7211450,47.9165578,38.5481395
node,256614404,village,Kosharne,Кошарне,Q4236941,47.67002,38.44854
node,256614407,village,Vasylivka,Василівка,Q4104210,47.674167,38.5141805
node,256614411,town,,Копані,Q4122537,47.7603038,38.3379043
node,256614414,village,Obrizne,Обрізне,Q4329863,47.70744,38.28461
node,256614418,town,,Попова Балка,Q4249460,47.8097609,38.2864617
node,256614421,town,Novoamvrosiivske,Новоамвросіївське,Q4323129,47.8334921,38.5012053
node,256614425,village,Oleksiivske,Олексіївське,Q4061923,47.81756,38.74929
node,256614430,village,Hryhorivka,Григорівка,Q4149136,47.8558568,38.7806038
node,256614434,hamlet,Komyshuvakha,Комишуваха,Q4211876,47.7911001,38.7552153
node,256614438,village,,Вільхівчик,Q4324929,47.8490944,38.8112168
node,256614442,hamlet,Novoukrainske,Новоукраїнське,Q4326082,47.7964557,38.7868888
node,256614446,village,Semenivske,Семенівське,Q4416000,47.85267,38.75496
node,256614449,village,Artemivka,Артемівка,Q842979,47.8730565,38.6395378
node,256614453,village,Karpovo-Nadezhdynka,Карпово-Надеждинка,Q4215902,47.8280611,38.5829051
node,256614458,hamlet,Krasnyi Luch,Красний Луч,Q4239521,47.87636,38.61832
node,256614462,village,Krynychky,Кринички,Q4241087,47.8654087,38.7021281
node,256614466,village,Ovocheve,Овочеве,Q4330748,47.867825,38.5825676
node,256614471,village,Rubashkyne,Рубашкине,Q4399001,47.8542533,38.6188536
node,256614475,village,Hryhorivka,Григорівка,Q4149159,47.8671988,38.2660088
node,256614479,village,Hrabske,Грабське,Q4147318,47.90065,38.16161
node,256614484,village,,Верхньоосикове,Q4123753,47.8113232,38.2301027
node,256614489,village,Ahronomichne,Агрономічне,Q4057122,47.85885,38.1926
node,256614501,village,Bondarivske,Бондарівське,Q4093164,47.8438453,38.2863581
node,256614506,village,Metalist,Металіст,Q4291536,47.8249687,38.2996095
node,256614510,village,Kharkivske,Харківське,Q4496364,47.7443028,38.5590658
node,256614513,village,Novoielanchyk,Новоєланчик,Q4323935,47.778893,38.437481
node,256614520,village,Verkhnoielanchyk,Верхньоєланчик,Q7242819,47.7599819,38.4450281
node,256614524,village,Kyselivka,Киселівка,Q4221972,47.74984,38.459999
node,256614529,village,Novoivanivka,Новоіванівка,Q4324067,47.67586,38.39413
node,256614536,village,Chervonosilske,Червоносільське,Q4512366,47.8228617,38.2293672
node,256614543,village,Prydorozhnie,Придорожнє,Q4378166,47.91824,38.16985
node,256614557,village,Kobzari,Кобзарі,Q4225117,47.91979,38.15234
node,256614567,village,Sadove,Садове,Q4404700,47.96931,38.17165
node,256614573,village,Fedorivka,Федорівка,Q4494058,47.9424254,38.1985149
node,256614577,village,Zelene,Зелене,Q4190683,47.9459027,38.1725705
node,256614579,village,Verbivka,Вербівка,Q4107482,47.97146,38.13809
node,256614580,village,Yelyzaveto-Mykolaivka,Єлизавето-Миколаївка,Q4174822,47.82246,38.3464
node,256614581,village,Trepelne,Трепельне,Q4462430,47.8201607,38.3791285
node,256614582,village,Mokroielanchyk,Мокроєланчик,Q4300099,47.70538,38.50571
node,256614583,village,Petropavlivka,Петропавлівка,Q4361484,47.67757,38.57265
node,256614584,village,Lysyche,Лисиче,Q4263213,47.7305844,38.5924412
node,256614590,village,Kvashyne,Квашине,Q4218624,47.7438471,38.586967
node,256614591,village,Pobieda,Побєда,Q4366145,47.7723773,38.1872717
node,256614592,village,Svobodne,Свободне,Q4411110,47.773911,38.2454919
node,256614593,village,Merezhky,Мережки,Q4290806,47.7546657,38.2463768
node,256614594,village,Petrenky,Петренки,Q4360471,47.7262446,38.2242553
node,256614595,village,Klenivka,Кленівка,Q4223329,47.7662704,38.2311544
node,256614597,village,Pidhorodne,Підгородне,Q4367424,48.63467,38.03089
node,256614598,village,Bakhmutske,Бахмутське,Q4079881,48.6644807,38.0935602
node,256614599,village,Vyimka,Виїмка,Q4128913,48.80462,38.14762
node,256614600,village,Berestove,Берестове,Q4084797,48.7561028,38.251866
node,256614601,village,Myronivka,Миронівка,Q4296117,48.48575,38.25371
node,256614602,hamlet,Lozove,Лозове,Q4265605,48.3843,38.23053
node,256614603,village,Roty,Роти,Q4398698,48.5178195,38.2320551
node,256614604,hamlet,Rozsadky,Розсадки,Q4390309,48.43117,38.3519
node,256614605,hamlet,Sakko I Vantsetti,Сакко І Ванцетті,Q4405406,48.7459765,38.0308095
node,256614606,hamlet,Pazeno,Пазено,Q4361305,48.765911,37.97356
node,256614607,hamlet,Khromivka,Хромівка,Q4501573,48.74625,37.94454
node,256614608,village,Fedorivka,Федорівка,Q4494059,48.76625,38.04531
node,256614609,village,Spirne,Спірне,Q4438029,48.80942,38.24736
node,256614610,village,Nahirne,Нагірне,Q4311646,48.7419571,38.2442039
node,256614619,hamlet,Bondarne,Бондарне,Q4093248,48.7441006,37.9276546
node,256614620,village,Vasiukivka,Васюківка,Q4105175,48.74042,37.9957
node,256614621,village,Pokrovka,Покровка,Q4369163,47.91129,38.33422
node,256614622,village,Rusko-Orlivka,Русько-Орлівка,Q4400923,47.95223,38.37868
node,256614623,village,Uspenka,Успенка,Q4477936,47.73113,38.70106
node,256614624,hamlet,Vyselky,Виселки,Q4129208,47.6986,38.65625
node,256614625,village,Olhynske,Ольгинське,Q4334129,47.7201817,38.408145
node,256614626,village,Pavlivske,Павлівське,Q4341821,47.69955,38.34537
node,256614627,village,Ulianivske,Улянівське,Q4475219,47.6374157,38.4017636
node,256614630,village,Stepano-Krynka,Степано-Кринка,Q4441752,47.92099,38.33885
node,256614638,town,Siversk,Сіверськ,Q1940853,48.8676267,38.0902435
node,256614644,village,Luhanske,Луганське,Q4267941,48.43048,38.25542
node,256614650,village,Vozdvyzhenka,Воздвиженка,Q4239575,48.49296,38.2907
node,256614651,hamlet,Krynychne,Криничне,Q4241119,48.51065,38.27122
node,256614652,village,Kalynove,Калинове,Q4209884,47.75654,38.6935
node,256614653,village,Katerynivka,Катеринівка,Q4217304,47.68951,38.75058
node,256614654,village,Manych,Манич,Q4280837,47.75568,38.74457
node,256614655,village,Stepne,Степне,Q4442087,47.68101,38.63411
node,256614656,village,Debaltsivske,Дебальцівське,Q4229806,48.3316,38.37662
node,256614657,village,Kalynivka,Калинівка,Q4209740,48.3395844,38.3244313
node,256614658,hamlet,Mykolaivka Druha,Миколаївка Друга,Q4320391,48.4735113,38.0302601
node,256614659,village,Odradivka,Одрадівка,Q4340006,48.501751,38.0214951
node,256614660,village,Andriivka,Андріївка,Q4065574,48.50138,37.96695
node,256614661,village,Khromove,Хромове,Q4070460,48.599054,37.9453103
node,256614662,village,Lohvynove,Логвинове,Q7237774,48.37898,38.34683
node,256614663,village,Ivanivske,Іванівське,Q4238577,48.574936,37.924595
node,256614664,village,Klynove,Клинове,Q4223899,48.56026,38.15895
node,256614666,village,Vidrodzhennia,Відродження,Q4110695,48.5261437,38.220091
node,256614667,village,Bohdanivka,Богданівка,Q4089317,48.61648,37.89588
node,256614669,village,Hryhorivka,Григорівка,Q4149151,48.63905,37.85365
node,256614675,hamlet,Dacha,Дача,Q4155390,48.44181,38.04325
node,256614679,hamlet,Mykolaivka,Миколаївка,Q4320287,48.4849,38.03261
node,256614680,hamlet,Midna Ruda,Мідна Руда,Q4287817,48.55476,38.20744
node,256614681,village,Kodema,Кодема,Q4226156,48.47546,38.0817
node,256614682,village,Vesela Dolyna,Весела Долина,Q4109719,48.5501633,38.0657639
node,256614683,hamlet,Vershyna,Вершина,Q4109235,48.5129297,38.1457986
node,256614684,village,Zaitseve,Зайцеве,Q4184473,48.52386,38.07072
node,256614685,hamlet,Platonivka,Платонівка,Q4364691,48.8978687,38.0163003
node,256614686,village,Kalynivka,Калинівка,Q4209523,48.60987,37.85897
node,256614687,village,Pereizne,Переїзне,Q4350325,48.77174,38.06351
node,256614688,hamlet,Kuzmynivka,Кузьминівка,Q4245431,48.7942279,38.0697761
node,256614689,village,Zvanivka,Званівка,Q4189314,48.8140035,38.0763916
node,256614690,village,Volodymyrivka,Володимирівка,Q7294061,48.6634106,38.2006613
node,256614691,hamlet,Novoselivka,Новоселівка,Q4325798,48.8522287,38.1617246
node,256614697,hamlet,Ivano-Darivka,Івано-Дар’ївка,Q4195871,48.81431,38.19749
node,256614698,village,Verkhnokamianske,Верхньокам’янське,Q4108423,48.86066,38.19157
node,256614699,village,Dronivka,Дронівка,Q4168567,48.92074,38.04256
node,256614700,village,Trypillia,Трипілля,Q4463166,48.6735838,38.2691183
node,256614701,hamlet,Striapivka,Стряпівка,Q4444444,48.6707532,38.1483068
node,256614702,village,Pylypchatyne,Пилипчатине,Q4362743,48.6080884,38.2465429
node,256614703,hamlet,Zaliznianske,Залізнянське,Q4185410,48.701228,37.9465885
node,256614706,village,Pokrovske,Покровське,Q4369402,48.62858,38.13114
node,256614707,hamlet,Nova Kamianka,Нова Кам’янка,Q4322137,48.6674717,38.1247628
node,256614708,village,Rozdolivka,Роздолівка,Q7214931,48.7532761,38.0812574
node,256614709,hamlet,Krasnopolivka,Краснополівка,Q4238926,48.7303635,38.0512144
node,256614710,hamlet,Mykolaivka,Миколаївка,Q4320343,48.7455426,38.0551914
node,256614711,village,Riznykivka,Різниківка,Q4392461,48.83843,37.97295
node,256614712,village,Sviato-Pokrovske,Свято-Покровське,Q4221558,48.82839,38.05698
node,256614713,village,Semyhiria,Семигір’я,Q4415441,48.46619,38.15955
node,256614714,village,Travneve,Травневе,Q4461691,48.4241755,38.0951089
node,256614715,village,Opytne,Опитне,Q4335579,48.5517344,38.0207672
node,256614716,village,Zelenopillia,Зеленопілля,Q4190387,48.4715849,37.9632015
node,256614717,village,Ivanhrad,Іванград,Q4195693,48.5593711,38.0262592
node,256614718,village,Yahidne,Ягідне,Q4536187,48.63064,37.98248
node,256614719,village,Paraskoviivka,Парасковіївка,Q4345002,48.6607515,37.9988717
node,256614721,village,Blahodatne,Благодатне,Q4087833,48.69587,38.01613
node,256614722,hamlet,Lypivka,Липівка,Q4262765,48.7817053,37.8692666
node,256614723,hamlet,Dibrova,Діброва,Q4161108,48.76462,37.83365
node,256614724,village,Novohryhorivka,Новогригорівка,Q4323481,48.36353,38.41953
node,256614726,village,Fedorivka Druha,Федорівка Друга,Q4494141,48.7604129,37.8551818
node,256614727,hamlet,Sanzharivka,Санжарівка,Q4407580,48.436146,38.424896
node,256614728,hamlet,Nyzhnie Lozove,Нижнє Лозове,Q4318808,48.3958712,38.3774106
node,256614729,village,Dolomitne,Доломітне,Q4165090,48.4137913,38.1343802
node,256614730,village,Novoluhanske,Новолуганське,Q4324419,48.42739,38.17329
node,256614731,village,Klishchiivka,Кліщіївка,Q4223501,48.5279,37.95828
node,256614732,village,Berkhivka,Берхівка,Q4085261,48.64317,37.96188
node,256614733,hamlet,Holubivka,Голубівка,Q4142478,48.7241941,37.8550273
node,256614734,village,Minkivka,Міньківка,Q4295347,48.70016,37.85142
node,256614735,village,Orikhovo-Vasylivka,Оріхово-Василівка,Q4336295,48.6763,37.88944
node,256614736,hamlet,Dubovo-Vasylivka,Дубово-Василівка,Q4169448,48.64952,37.9303
node,256614737,village,Nykyforivka,Никифорівка,Q4319963,48.7714053,37.8973332
node,256614738,village,Pryvillia,Привілля,Q4377911,48.7250547,37.8688374
node,256614739,village,Novoocheretuvate,Новоочеретувате,Q4324805,47.89507,36.81338
node,256614740,village,Fedorivka,Федорівка,Q4494065,47.95163,36.75682
node,256614741,village,Dniproenerhiia,Дніпроенергія,Q4163258,47.92116,36.79845
node,256614742,village,Zaporizhzhia,Запоріжжя,Q4186977,48.0336,36.76266
node,256614743,village,Komar,Комар,Q4229225,47.9783415,36.7480889
node,256614744,village,Vesele,Веселе,Q4109781,47.9332815,36.7671844
node,256614746,village,Zelenyi Hai,Зелений Гай,Q4190801,48.0700013,36.6518291
node,256614747,village,Novopil,Новопіль,Q4325033,47.8096697,36.6230123
node,256614748,village,Novosilka,Новосілка,Q4325694,47.8386737,36.6873791
node,256614749,village,Yevhenivka,Євгенівка,Q4172871,47.67097,37.08546
node,256614750,village,Zelene Pole,Зелене Поле,Q4190741,47.8298423,36.6236781
node,256614751,hamlet,Novoukrainka,Новоукраїнка,Q4326043,48.02948,36.86729
node,256614752,village,Oleksiivka,Олексіївка,Q4061782,48.0173175,36.9483534
node,256614754,village,Bahatyr,Багатир,Q4089091,47.9926307,36.9392316
node,256614787,village,Zelenyi Kut,Зелений Кут,Q4190892,48.02158,36.89655
node,256614788,village,Shevchenko,Шевченко,Q4522179,48.0188615,37.1504786
node,256614789,village,Slovianka,Слов’янка,Q4423019,48.06862,37.13619
node,256614790,village,Petropavlivka,Петропавлівка,Q4361489,48.04484,37.14074
node,256614791,village,Andriivka,Андріївка,Q4065588,48.0182802,37.0648627
node,256614792,village,Blahodatne,Благодатне,Q4332983,47.79636,36.81407
node,256614793,village,Novyi Komar,Новий Комар,Q4326671,47.8830793,36.8389253
node,256614795,village,Neskuchne,Нескучне,Q4317668,47.81997,36.80883
node,256614796,village,Vremivka,Времівка,Q4127070,47.8343,36.8145
node,256614797,town,Velyka Novosilka,Велика Новосілка,Q4106309,47.8436751,36.8396472
node,256614798,village,Lypove,Липове,Q4262816,48.7241052,38.3041371
node,256614799,village,Vesele,Веселе,Q4109769,48.7437735,38.1519523
node,256614800,village,Vasylivka,Василівка,Q4104211,48.7253617,38.2579984
node,256614801,village,Bilohorivka,Білогорівка,Q4082330,48.7351302,38.2194591
node,256614802,village,Yakovlivka,Яковлівка,Q6649604,48.7065806,38.1486373
node,256614803,village,Hryhorivka,Григорівка,Q4149170,48.92452,38.18642
node,256614804,village,Serebrianka,Серебрянка,Q4417363,48.92074,38.12805
node,256614805,village,Volodyne,Володине,Q4123793,47.69569,36.74978
node,256614806,village,Zavitne Bazhannia,Завітне Бажання,Q4183083,47.7207241,36.816277
node,256614807,village,Kliuchove,Ключове,Q4224413,47.6762,36.86523
node,256614808,village,Orlynske,Орлинське,Q4336573,47.6507198,36.7644737
node,256614809,village,Rivnopil,Рівнопіль,Q4395306,47.78701,36.69923
node,256614810,village,Storozheve,Сторожеве,Q4443111,47.7989889,36.7995287
node,256614822,village,Staromlynivka,Старомлинівка,Q4440495,47.697415,36.8256785
node,256614823,village,Rozdolne,Роздольне,Q4388474,47.9072928,36.9174426
node,256614824,village,Odradne,Одрадне,Q4339974,47.9744752,36.8572958
node,256614826,village,Staromaiorske,Старомайорське,Q4440473,47.75293,36.7933
node,256614827,village,Makarivka,Макарівка,Q4275426,47.777934,36.8013616
node,256614828,village,Myrne,Мирне,Q4215193,47.9855725,36.7064995
node,256614829,village,Novokhatske,Новохатське,Q4326158,48.06278,36.68713
node,256614830,village,Perebudova,Перебудова,Q4349960,47.98502,36.73931
node,256614831,village,Tolstoi,Толстой,Q4459976,48.0380367,36.685253
node,256614832,village,Novomaiorske,Новомайорське,Q4324435,47.73182,37.04006
node,256614833,village,Novodonetske,Новодонецьке,Q4323662,47.7555461,36.9606117
node,256614834,hamlet,Hrushivske,Грушівське,Q4150907,48.0461545,36.7123371
node,256614835,village,Piddubne,Піддубне,Q4367498,48.0118274,36.6919301
node,256614836,village,Malyi Kermenchyk,Малий Керменчик,Q4278926,47.6289891,36.9898489
node,256614837,village,Heorhiivka,Георгіївка,Q4135757,47.6580175,36.8990555
node,256614838,village,Kermenchyk,Керменчик,Q4333193,47.7075324,36.9421754
node,256614839,village,Yalynske,Ялинське,Q4537506,47.6431918,36.933511
node,256614840,village,Ulakly,Улакли,Q4470814,47.9969342,37.0869831
node,256614844,village,Rozlyv,Розлив,Q4388598,47.97271,37.0015293
node,256614851,village,Novopetrykivka,Новопетриківка,Q4324885,47.6275192,36.9355561
node,256614855,village,,Нова Каракуба,Q4238023,47.56007,37.07233
node,256614860,village,Yalta,Ялта,Q4537453,48.0440653,36.7494034
node,256614865,village,Zirka,Зірка,Q6667016,48.0349389,36.7202677
node,256614871,village,Kostiantynopil,Костянтинопіль,Q4231477,48.0015007,37.0414412
node,256614875,village,Skudne,Скудне,Q4422680,47.90949,36.79845
node,256614880,village,Zachativka,Зачатівка,Q4188999,47.497281,37.152262
node,256614885,village,Zachativka,Зачатівка,Q4188997,47.47227,37.20211
node,256614893,village,Yehorivka,Єгорівка,Q4173812,47.70693,37.22494
node,256614901,hamlet,Shevchenko,Шевченко,Q4522123,47.72735,37.15044
node,256614909,village,Vilne,Вільне,Q4124592,47.52891,37.18426
node,256614920,village,Dmytrivka,Дмитрівка,Q4162946,47.5456807,37.5186365
node,256614927,village,Blahovishchenka,Благовіщенка,Q4087720,47.67757,37.38373
node,256614934,village,Zelenyi Hai,Зелений Гай,Q4190804,47.6551728,37.4384212
node,256614941,village,Ivanivka,Іванівка,Q92568,47.58007,37.31429
node,256614949,village,Novotatarivka,Новотатарівка,Q4325930,47.5526918,37.3555717
node,256614956,village,Malynivka,Малинівка,Q4277859,47.512913,37.382797
node,256614962,village,Novomykolaivka,Новомиколаївка,Q4324691,47.4419834,37.3863665
node,256614966,village,Holubytske,Голубицьке,Q4142409,47.5258932,37.4227737
node,256614970,village,Zatyshne,Затишне,Q4188368,47.520779,37.326633
node,256614973,village,Zlatoustivka,Златоустівка,Q4192406,47.488918,37.328541
node,256614977,village,Vesele,Веселе,Q4109784,47.487926,37.362282
node,256614982,village,Mykolaivka,Миколаївка,Q7221982,47.65397,37.67933
node,256614986,village,Chervone,Червоне,Q4512245,47.8319,37.78662
node,256614990,village,Liubivka,Любівка,Q4271750,47.8240307,37.7525727
node,256614994,village,Buhas,Бугас,Q4097757,47.63423,37.56097
node,256614998,village,Znamenivka,Знаменівка,Q4192780,47.4329732,37.4437892
node,256615002,village,Soniachne,Сонячне,Q4238366,47.4056672,37.4401316
node,256615036,village,Dianivka,Діанівка,Q4221729,47.4251327,37.4034185
node,256615040,village,Kalynove,Калинове,Q4209571,47.457851,37.463718
node,256615044,village,Kyrylivka,Кирилівка,Q4221400,47.6521193,37.3024235
node,256615047,village,Novoandriivka,Новоандріївка,Q4323134,47.6471775,37.3501142
node,256615053,village,Lidyne,Лідине,Q4261313,47.41296,37.59495
node,256615055,village,Novooleksiivka,Новоолексіївка,Q4323095,47.3817651,37.58641
node,256615058,village,Mykilske,Микільське,Q4320963,47.7503068,37.3026263
node,256615078,village,Novohnativka,Новогнатівка,Q4323429,47.64049,37.69778
node,256615088,hamlet,Viktorivka,Вікторівка,Q4111076,47.6354442,37.8086561
node,256615089,village,Bohdanivka,Богданівка,Q4089327,47.62959,37.75718
node,256615090,village,Burlatske,Бурлацьке,Q4099691,47.89017,36.74111
node,256615091,village,Vilne Pole,Вільне Поле,Q4124648,47.87662,36.68429
node,256615092,village,Voskresenka,Воскресенка,Q4126143,47.9556754,36.650157
node,256615095,village,Komyshuvakha,Комишуваха,Q4211877,47.8883384,36.5903325
node,256615097,village,Shakhtarske,Шахтарське,Q4521470,47.85979,37.01002
node,256615099,village,Zolota Nyva,Золота Нива,Q4193193,47.7943,36.98891
node,256615101,village,Yasna Poliana,Ясна Поляна,Q4539317,47.8780316,37.0311126
node,256615103,village,Shevchenko,Шевченко,Q4522178,47.9008073,36.6770255
node,256615105,village,Novopavlivka,Новопавлівка,Q4324814,47.5615305,37.4383931
node,256615107,village,Trudove,Трудове,Q4464347,47.5850631,37.3845634
node,256615109,town,Blahodatne,Благодатне,Q4087837,47.6992867,37.4193794
node,256615111,town,Volodymyrivka,Володимирівка,Q4113136,47.7266739,37.405817
node,256615112,village,Oleksandrohrad,Олександроград,Q4061544,47.9767737,36.6040075
node,256615115,village,Pryvilne,Привільне,Q4377942,47.8703398,36.7112158
node,256615117,town,Volnovakha,Волноваха,Q3562943,47.6014517,37.4934079
node,256615136,village,Novohryhorivka,Новогригорівка,Q4323490,47.56248,37.39686
node,256615138,village,Molodizhne,Молодіжне,Q4300763,47.8256908,37.7164731
node,256615142,village,Malynove,Малинове,Q4277922,47.8352876,37.719467
node,256615143,village,Nova Olenivka,Нова Оленівка,Q4361363,47.825233,37.70274
node,256615148,hamlet,Novomykolaivka,Новомиколаївка,Q4324690,47.8387797,37.689644
node,256615151,town,Hrafske,Графське,Q4230205,47.6762795,37.4116117
node,256615153,town,Donske,Донське,Q4166372,47.5159927,37.5375497
node,256615155,village,Olenivka,Оленівка,Q4333612,47.829391,37.6486936
node,256615157,town,Novotroitske,Новотроїцьке,Q4325992,47.7167369,37.5817221
node,256615159,village,Andriivka,Андріївка,Q4065591,47.8528026,37.7916903
node,256615161,village,Polkove,Полкове,Q4370305,47.43982,37.52475
node,256615163,village,Valerianivka,Валер’янівка,Q4102857,47.6387983,37.3792428
node,256615165,village,Dolia,Доля,Q4165156,47.8738798,37.7218629
node,256615169,town,Olhynka,Ольгинка,Q4334102,47.6976728,37.5003415
node,256615170,village,Anadol,Анадоль,Q4064709,47.4511601,37.5816917
node,256615172,village,Pilne,Пільне,Q4371212,47.7245772,37.5157727
node,256615174,village,Luhove,Лугове,Q4268046,47.1774803,36.8865029
node,256615176,village,Sadove,Садове,Q4404716,47.1875721,36.9340835
node,256615185,village,Zelenyi Yar,Зелений Яр,Q7267387,47.2022509,37.0499297
node,256615187,village,Vesele,Веселе,Q4109785,47.1900136,36.9747041
node,256615189,village,Kyrylivka,Кирилівка,Q4221398,47.3224138,37.6736509
node,256615190,village,Kelerivka,Келерівка,Q4221567,47.3516072,37.6153093
node,256615192,village,Fedorivka,Федорівка,Q4494069,47.2070909,37.1176813
node,256615194,village,Kalchyk,Кальчик,Q4210602,47.3076184,37.5984749
node,256615196,village,Kliuchove,Ключове,Q4224414,47.264922,37.5200306
node,256615198,village,Kremenivka,Кременівка,Q1120944,47.3318787,37.4772497
node,256615200,village,Kasianivka,Касянівка,Q4216995,47.2974301,37.5321807
node,256615201,village,Makedonivka,Македонівка,Q4275644,47.2430365,37.5544474
node,256615203,village,Maloianysol,Малоянисоль,Q4278482,47.3720717,37.3362853
node,256615205,village,Katerynivka,Катеринівка,Q4217317,47.4377592,37.2513943
node,256615207,village,Aslanove,Асланове,Q4071352,47.2448756,37.5803167
node,256615208,village,Khersones,Херсонес,Q4497330,47.22877,37.55067
node,256615210,village,Nazarivka,Назарівка,Q4312208,47.3292009,37.1137894
node,256615212,village,Kalchynivka,Кальчинівка,Q4210605,47.35562,37.13988
node,256615214,village,Novokrasnivka,Новокраснівка,Q4324270,47.3165183,37.1554689
node,256615216,village,Truzhenka,Труженка,Q4464457,47.38163,37.22443
node,256615217,village,Novoromanivka,Новороманівка,Q4325125,47.2207675,37.1759062
node,256615218,village,Ksenivka,Ксенівка,Q4243313,47.26868,37.18185
node,256615219,village,Respublika,Республіка,Q4393590,47.2546,37.20185
node,256615220,hamlet,Ukrainka,Українка,Q4470426,47.278609,37.0917859
node,256615221,village,Krynychne,Криничне,Q4333195,47.27563,37.34691
node,256615222,village,Topolyne,Тополине,Q4460753,47.2375601,37.3894754
node,256615223,village,Temriuk,Темрюк,Q4440837,47.266232,36.982338
node,256615226,village,Serhiivka,Сергіївка,Q4416877,47.2724349,37.2112702
node,256615229,village,Sviatohorivka,Святогорівка,Q4411515,48.4855523,37.0399262
node,256615231,village,Shevchenko,Шевченко,Q4522116,47.2530025,37.4527403
node,256615233,hamlet,Peremoha,Перемога,Q4350595,47.28756,37.40501
node,256615235,village,,Домаха,Q4349475,47.2705492,37.3805143
node,256615237,village,Stritenka,Стрітенка,Q4333194,47.509086,37.4793531
node,256615238,village,Lazarivka,Лазарівка,Q4252859,47.486935,37.4610123
node,256615241,hamlet,Petrivka,Петрівка,Q4361362,47.48111,37.44115
node,256615243,village,Shevchenko,Шевченко,Q4522149,47.49355,37.53822
node,256615248,village,Pryvilne,Привільне,Q4377944,47.37656,37.50912
node,256615252,village,Prokhorivka,Прохорівка,Q4382203,47.5295821,37.6690662
node,256615254,village,Malohnativka,Малогнатівка,Q4278120,47.51175,37.67212
node,256615258,hamlet,Tarasivka,Тарасівка,Q4451736,47.54986,37.65118
node,256615260,village,Novoapostolivka,Новоапостолівка,Q4516786,47.560585,37.622475
node,256615262,village,Rivnopil,Рівнопіль,Q4395308,47.5565985,37.2295552
node,256615264,village,Peredove,Передове,Q4350291,47.5701942,37.1616136
node,256615265,village,Rybynske,Рибинське,Q4401574,47.57835,37.58156
node,256615267,village,Blyzhnie,Ближнє,Q4088114,47.6059488,37.5484
node,256615269,village,Vasylivka,Василівка,Q4104218,47.5773813,37.6784924
node,256615271,village,Trudivske,Трудівське,Q4464388,47.5844065,37.6575965
node,256615272,village,Stepne,Степне,Q4442094,47.6121068,37.1378115
node,256615274,village,Svobodne,Свободне,Q4411112,47.5320578,37.5614294
node,256615276,village,Khlibodarivka,Хлібодарівка,Q4498088,47.47784,37.406132
node,256615278,village,Kropyvnytske,Кропивницьке,Q4241687,47.621013,37.2157294
node,256615280,village,Lisne,Лісне,Q4259603,47.1662106,37.3026609
node,256615282,town,,Микільське,Q4123759,47.2004406,37.3162144
node,256615285,village,Novoianysol,Новоянисоль,Q4326298,47.292085,37.2706026
node,256615287,village,Novohryhorivka,Новогригорівка,Q4323491,47.1970066,37.2166773
node,256615289,village,Malynivka,Малинівка,Q4277861,47.1726673,37.2391859
node,256615291,village,Suzhenka,Суженка,Q4445596,47.1495317,37.1033167
node,256615292,village,Pannivka,Паннівка,Q4344152,47.19555,37.24511
node,256615295,village,Vodiane,Водяне,Q4114214,47.292969,37.679501
node,256615296,village,,Афіни,Q4187722,47.2978225,37.6140154
node,256615298,village,Pryovrazhne,Приовражне,Q4378932,47.257243,37.6366912
node,256615300,village,Hranitne,Гранітне,Q4147869,47.320616,37.5515379
node,256615303,village,Toretske,Торецьке,Q4461090,48.49614,37.36502
node,256615305,village,Shakhove,Шахове,Q4333197,48.4594232,37.3488998
node,256615311,village,Pankivka,Панківка,Q4344102,48.43803,37.3312
node,256615324,village,Koptieve,Коптєве,Q4232422,48.38138,37.36519
node,256615331,village,Volodymyrivka,Володимирівка,Q4113149,48.4443,37.35326
node,256615332,village,Novotoretske,Новоторецьке,Q4325954,48.4025,37.32193
node,256615334,village,Vesna,Весна,Q4477056,48.58738,37.07165
node,256615337,village,,Мирове,Q4349483,48.5406383,37.0805968
node,256615339,village,Vesele Pole,Веселе Поле,Q4109844,48.53854,37.10512
node,256615342,village,Blahodat,Благодать,Q4087878,48.5773514,37.121815
node,256615344,village,Novovodiane,Нововодяне,Q4323358,48.5455611,37.1430564
node,256615346,village,Maiak,Маяк,Q4286315,48.4266192,37.3215647
node,256615347,village,,Затишок,Q4445177,48.38756,37.25498
node,256615349,village,Nove Shakhove,Нове Шахове,Q4396708,48.45248,37.236259
node,256615351,village,Ivanivka,Іванівка,Q98749,48.4394112,37.2290416
node,256615353,village,Dorozhnie,Дорожнє,Q4166883,48.4244484,37.2225351
node,256615355,village,Yablunivka,Яблунівка,Q4535870,48.42344,37.66027
node,256615356,village,Dovha Balka,Довга Балка,Q4070400,48.492451,37.606369
node,256615358,village,Yurivka,Юр’ївка,Q4535271,48.38722,36.89475
node,256615360,village,Oleksandro-Kalynove,Олександро-Калинове,Q4061027,48.41383,37.67195
node,256615362,village,Novooleksandrivka,Новоолександрівка,Q4323023,48.35512,37.06941
node,256615363,hamlet,Petrivske,Петрівське,Q4361396,48.38362,36.86479
node,256615365,village,Myrne,Мирне,Q4258055,48.36559,37.00839
node,256615367,village,Lyman,Лиман,Q4261657,48.41228,36.86737
node,256615369,village,Hulive,Гуліве,Q4151808,48.37177,36.97174
node,256615373,village,Kamianka,Кам’янка,Q4210928,48.36654,36.84926
node,256615375,village,Shylivka,Шилівка,Q4523866,48.37932,36.94084
node,256615377,village,Vasylivka,Василівка,Q4104228,48.3574433,37.0398491
node,256615379,village,Novyi Donbas,Новий Донбас,Q4326641,48.4515774,37.1774549
node,256615381,village,Shevchenko,Шевченко,Q4522122,48.38276,37.1101
node,256615385,village,Svitle,Світле,Q4410405,48.4047223,37.1169558
node,256615388,village,,Чернігівка,Q4239288,48.4215117,37.1287686
node,256615389,village,Vesele,Веселе,Q4109791,48.54266,37.27077
node,256615391,village,Zolotyi Kolodiaz,Золотий Колодязь,Q4193449,48.5286098,37.2357497
node,256615394,hamlet,Lidyne,Лідине,Q4261316,48.5937433,37.1860009
node,256615398,village,Hruzke,Грузьке,Q4150599,48.54987,37.29532
node,256615400,village,Krasnopodillia,Красноподілля,Q4238912,48.420121,37.0918118
node,256615402,village,Dobropillia,Добропілля,Q4163755,48.4212843,37.0484727
node,256615404,village,Novohryshyne,Новогришине,Q4323524,48.41649,37.02633
node,256615407,village,Matiasheve,Матяшеве,Q4285513,48.4102367,37.0623562
node,256615415,village,Novoukrainka,Новоукраїнка,Q4326047,48.54515,37.02392
node,256615443,village,Rubizhne,Рубіжне,Q4399032,48.5119275,37.1961658
node,256615445,village,,Степи,Q4249632,48.4896055,37.1868102
node,256615447,village,Virivka,Вірівка,Q4107971,48.48232,36.97758
node,256615449,hamlet,Viktorivka,Вікторівка,Q4111077,48.53107,36.95972
node,256615452,village,Novoviktorivka,Нововікторівка,Q4323327,48.53382,36.98067
node,256615454,village,Kopani,Копані,Q4232194,48.5466118,37.0408736
node,256615456,hamlet,Raksha,Ракша,Q4389567,48.4742443,36.9747149
node,256615462,village,,Заповідне,Q4319635,48.4192667,37.257187
node,256615465,village,Boikivka,Бойківка,Q4090426,48.40181,37.30811
node,256615467,village,Vilne,Вільне,Q4124595,48.47228,37.22391
node,256615469,village,Zelene,Зелене,Q4190701,48.4703074,36.8528911
node,256615481,hamlet,Novokryvorizhzhia,Новокриворіжжя,Q4324296,48.4885,36.89518
node,256615483,hamlet,Novomarivka,Новомар’ївка,Q4324469,48.42516,36.85561
node,256615485,village,Novofedorivka,Новофедорівка,Q4326139,48.43254,36.97217
node,256615488,village,Kryvorizhzhia,Криворіжжя,Q4240836,48.4441378,36.9162268
node,256615490,village,Nadiia,Надія,Q4070399,48.4226778,36.999489
node,256615491,village,Zavydo-Borzenka,Завидо-Борзенка,Q4183039,48.51185,36.92024
node,256615492,village,Zavydo-Kudasheve,Завидо-Кудашеве,Q4183040,48.46722,36.93775
node,256615493,village,Kucheriv Yar,Кучерів Яр,Q4249973,48.5098678,37.2790838
node,256615495,village,Novotroitske,Новотроїцьке,Q4325993,48.5769764,37.2195343
node,256615497,village,Marivka,Мар’ївка,Q4283380,48.5654676,37.1712468
node,256615499,hamlet,Petrivka,Петрівка,Q4361342,48.56678,37.19696
node,256615500,village,Stupochky,Ступочки,Q4444727,48.5366353,37.8269375
node,256615502,village,Predtechyne,Предтечине,Q4376729,48.52352,37.81734
node,256615504,village,Romanivka,Романівка,Q4397285,48.36722,37.71641
node,256615506,village,Kalynove,Калинове,Q4209873,48.29899,37.65461
node,256615508,hamlet,Zelene Pole,Зелене Поле,Q4190742,48.3294662,37.577358
node,256615509,hamlet,Vodiane Druhe,Водяне Друге,Q4114245,48.33564,37.50578
node,256615511,hamlet,Berezivka,Березівка,Q4085428,48.34705,37.50947
node,256615513,village,Tarasivka,Тарасівка,Q4451761,48.34851,37.55238
node,256615514,village,Poltavka,Полтавка,Q4370778,48.43666,37.46578
node,256615516,village,Sofiivka,Софіївка,Q844120,48.49571,37.37892
node,256615518,village,Nova Poltavka,Нова Полтавка,Q4322260,48.3645151,37.4890555
node,256615520,village,Chervone,Червоне,Q4512262,48.56326,37.78584
node,256615522,village,Hnativka,Гнатівка,Q4140590,48.33641,37.66199
node,256615523,village,Stara Mykolaivka,Стара Миколаївка,Q4375857,48.328861,37.678638
node,256615524,village,Rusyn Yar,Русин Яр,Q4400324,48.4473,37.50775
node,256615525,village,Popiv Yar,Попів Яр,Q4372644,48.41915,37.45891
node,256615526,village,Zhuravka,Журавка,Q4181681,48.226722,37.3674476
node,256615527,village,Krasnyi Yar,Красний Яр,Q4239652,48.242,37.33695
node,256615528,hamlet,Toretske,Торецьке,Q4461092,48.56155,37.42458
node,256615529,town,Hrodivka,Гродівка,Q4150058,48.26294,37.37892
node,256615531,village,,Козацьке,Q4304367,48.27993,37.30923
node,256615533,village,Promin,Промінь,Q4380627,48.26817,37.31609
node,256615534,village,Krutyi Yar,Крутий Яр,Q4242507,48.2326683,37.3376046
node,256615536,village,Mykolaivka,Миколаївка,Q4320262,48.2500834,37.3303941
node,256615538,village,Torske,Торське,Q4461328,48.54824,37.42149
node,256615539,hamlet,Novopavlivka,Новопавлівка,Q4324823,48.51932,37.41926
node,256615541,village,Novoolenivka,Новооленівка,Q4324775,48.3956019,37.5392616
node,256615543,village,Oleksandropil,Олександропіль,Q4061550,48.36044,37.59659
node,256615545,hamlet,Pryiut,Приют,Q4379419,48.53528,37.40827
node,256615547,village,Raiske,Райське,Q4389200,48.5625142,37.4805204
node,256615548,hamlet,Pavlivka,Павлівка,Q4341652,48.52764,37.41008
node,256615551,hamlet,Petrivka,Петрівка,Q4361007,48.5659157,37.4532905
node,256615552,village,Bila Hora,Біла Гора,Q4081606,48.486595,37.8556952
node,256615554,village,Ivanopillia,Іванопілля,Q4196804,48.47357,37.76439
node,256615556,hamlet,Nelipivka,Неліпівка,Q4316733,48.4527829,37.7886209
node,256615557,village,Dyliivka,Диліївка,Q4171562,48.46318,37.88283
node,256615559,village,Illinivka,Іллінівка,Q4199812,48.49425,37.66654
node,256615561,village,Oleksandro-Shultyne,Олександро-Шультине,Q4061059,48.48704,37.82704
node,256615563,village,Katerynivka,Катеринівка,Q4217327,48.41898,37.75632
node,256615565,village,Berestok,Бересток,Q4084823,48.478384,37.6947513
node,256615566,village,Stepanivka,Степанівка,Q4441903,48.46739,37.6153
node,256615569,village,Rozkishne,Розкішне,Q4397784,48.49863,37.59204
node,256615571,village,Viroliubivka,Віролюбівка,Q4107979,48.6128952,37.7140902
node,256615573,village,Bilokuzmynivka,Білокузьминівка,Q4082560,48.65381,37.67641
node,256615575,hamlet,Klynove,Клинове,Q4223902,48.61587,37.67521
node,256615576,hamlet,Bezimiane,Безім’яне,Q4081132,48.5950335,37.6819338
node,256615605,village,Zoria,Зоря,Q4187739,48.36216,37.67684
node,256615639,hamlet,Popasne,Попасне,Q4372190,48.595542,37.701924
node,256615684,hamlet,Fedorivka,Федорівка,Q4494098,48.65604,37.73941
node,256615717,village,Mykolaipillia,Миколайпілля,Q4320680,48.52678,37.55745
node,256615729,village,Mykolaivka,Миколаївка,Q4320289,48.5776263,37.7956848
node,256615731,village,Podilske,Подільське,Q4368078,48.572992,37.7688574
node,256615734,village,Novodmytrivka,Новодмитрівка,Q4323634,48.5503,37.72774
node,256615735,village,Izhevka,Іжевка,Q4198168,48.5862883,37.6709712
node,256615738,village,Molocharka,Молочарка,Q4301020,48.5594689,37.7109799
node,256615739,village,Stinky,Стінки,Q4441660,48.5788,37.73804
node,256615741,village,Kleban-Byk,Клебан-Бик,Q4223138,48.42525,37.76627
node,256615743,village,Pleshchiivka,Плещіївка,Q4365055,48.4570711,37.7795038
node,256615745,village,Kindrativka,Кіндратівка,Q4230565,48.5906423,37.5754875
node,256615746,village,Kurtivka,Куртівка,Q4248926,48.6110508,37.6255346
node,256615748,village,Osykove,Осикове,Q4339225,48.5655563,37.6219388
node,256615750,village,Markove,Маркове,Q4282139,48.65424,37.78696
node,256615752,village,Maiske,Майське,Q4275118,48.6244535,37.776709
node,256615753,village,Novomarkove,Новомаркове,Q4324461,48.67072,37.82593
node,256615755,village,,Надіївка,Q4311888,48.14329,37.00736
node,256615757,village,Kotliarivka,Котлярівка,Q4236140,48.1412691,36.9340687
node,256615759,village,Novotroitske,Новотроїцьке,Q7220889,48.19857,37.08881
node,256615766,village,,Чумацьке,Q4384748,48.1348986,37.1418192
node,256615779,village,Vozdvyzhenka,Воздвиженка,Q4114700,48.30311,37.51728
node,256615781,village,Baranivka,Баранівка,Q4077800,48.3203955,37.5371374
node,256615789,village,Novoielyzavetivka,Новоєлизаветівка,Q4323936,48.1364295,37.0406158
node,256615791,hamlet,Tymofiivka,Тимофіївка,Q4457613,48.2827213,37.4866676
node,256615792,village,Uspenivka,Успенівка,Q4477952,48.200271,37.0186762
node,256615794,village,Novopustynka,Новопустинка,Q4325079,48.1951631,37.1178853
node,256615796,hamlet,Vovkove,Вовкове,Q4123432,48.22972,37.08083
node,256615798,village,Pishchane,Піщане,Q4360048,48.23479,37.10761
node,256615800,village,Novovasylivka,Нововасилівка,Q4323295,48.2044903,37.0418043
node,256615802,village,Zhovte,Жовте,Q4182074,48.1857758,37.1478343
node,256615803,village,Novoolenivka,Новооленівка,Q4324776,48.1395205,37.0846652
node,256615805,village,Novooleksandrivka,Новоолександрівка,Q4323061,48.18955,36.99251
node,256615807,village,Myroliubivka,Миролюбівка,Q4295984,48.3014472,37.3734752
node,256615809,village,Yelyzavetivka,Єлизаветівка,Q4174832,48.3038381,37.4506627
node,256615810,village,Mykhailivka,Михайлівка,Q4297569,48.14217,37.35257
node,256615813,village,Memryk,Мемрик,Q4290267,48.12347,37.39523
node,256615815,hamlet,Novoukrainka,Новоукраїнка,Q4326054,48.228192,37.19739
node,256615816,village,Rih,Ріг,Q4395331,48.27212,37.20726
node,256615818,village,Sukhyi Yar,Сухий Яр,Q4447295,48.23273,37.26974
node,256615821,village,Chunyshyne,Чунишине,Q4518087,48.2323947,37.2033832
node,256615823,village,,Бажане,Q4323955,48.1858301,37.440196
node,256615825,village,Orlivka,Орлівка,Q4336784,48.2129188,37.3777198
node,256615826,village,Ptyche,Птиче,Q4383136,48.16749,37.44999
node,256615828,village,Novooleksandrivka,Новоолександрівка,Q4323060,48.27985,37.55908
node,256615831,village,Mykolaivka,Миколаївка,Q4320316,48.1843407,37.3895754
node,256615833,village,Zavitne,Завітне,Q4182999,48.1767858,37.433144
node,256615836,village,Kalynove,Калинове,Q4209875,48.13951,37.44235
node,256615837,village,Marynivka,Маринівка,Q4281520,48.17951,37.34828
node,256615839,village,Berestky,Берестки,Q4084771,48.0118271,37.2620519
node,256615841,village,Sontsivka,Сонцівка,Q4238606,48.0494464,37.1901774
node,256615843,village,Serhiivka,Сергіївка,Q4416890,48.22208,37.41085
node,256615845,hamlet,Svyrydonivka,Свиридонівка,Q4410840,48.28277,37.44673
node,256615847,village,Prohres,Прогрес,Q4379791,48.2444,37.49359
node,256615849,hamlet,Novotoretske,Новоторецьке,Q4325956,48.28766,37.41257
node,256615851,village,Lozuvatske,Лозуватське,Q4265544,48.2756795,37.5147521
node,256615852,hamlet,Lysychne,Лисичне,Q4263212,48.2746737,37.4602146
node,256615854,village,Novopavlivka,Новопавлівка,Q4324826,48.24869,37.22614
node,256615856,village,,Відродження,Q4326815,48.213288,37.1722606
node,256615875,village,Zelene,Зелене,Q4190711,48.2152336,37.1961186
node,256615878,village,Dachenske,Даченське,Q4155414,48.21298,37.21953
node,256615879,village,Hnativka,Гнатівка,Q4140591,48.26199,37.20906
node,256615881,village,Lysivka,Лисівка,Q4270717,48.22491,37.26511
node,256615883,village,Novodmytrivka,Новодмитрівка,Q4323635,48.08699,37.22288
node,256615885,village,Zoria,Зоря,Q4187740,48.08166,37.1822
node,256615886,town,Udachne,Удачне,Q4469341,48.23942,36.98273
node,256615890,village,Mykhailivka,Михайлівка,Q4297591,48.3015572,37.3644028
node,256615892,village,Razine,Разіне,Q4388580,48.36654,37.31223
node,256615893,village,Fedorivka,Федорівка,Q4269408,48.38173,37.29
node,256615901,village,Mykolaivka,Миколаївка,Q2752636,48.3204888,37.3450852
node,256615905,town,Novoekonomichne,Новоекономічне,Q4326267,48.32577,37.33223
node,256615909,hamlet,Balahan,Балаган,Q4076243,48.28989,37.29738
node,256615914,village,Vovche,Вовче,Q4124324,48.23616,37.48878
node,256615918,village,Yevhenivka,Євгенівка,Q4172873,48.2330784,37.5287601
node,256615922,village,Ivanivka,Іванівка,Q101613,48.26165,37.44724
node,256615928,village,Vesele,Веселе,Q4109799,48.23882,37.43471
node,256615932,village,Novoserhiivka,Новосергіївка,Q4325413,48.1983692,36.963474
node,256615935,village,Hryshyne,Гришине,Q4149907,48.3293763,37.0798002
node,256615940,village,Muravka,Муравка,Q4307651,48.17737,36.89724
node,256615946,village,Novomykolaivka,Новомиколаївка,Q4324654,48.18638,36.92676
node,256615951,village,Rubtsi,Рубці,Q4399205,49.179012,37.5668918
node,256615955,village,Novomykhailivka,Новомихайлівка,Q4324520,49.2016653,37.8701154
node,256615960,village,Lozove,Лозове,Q4265611,49.2112,37.5959
node,256615967,hamlet,Vovchyi Yar,Вовчий Яр,Q7292594,49.2009,37.67143
node,256615981,village,Terny,Терни,Q4456104,49.09721,37.96257
node,256615986,village,Ivanivka,Іванівка,Q199975,49.1094,37.94686
node,256616002,hamlet,Myrne,Мирне,Q4160829,49.0686016,37.9286138
node,256616010,hamlet,Novosadove,Новосадове,Q4325220,49.12674,37.97047
node,256616018,village,Kolodiazi,Колодязі,Q4228128,49.08314,37.88154
node,256616025,village,Shandryholove,Шандриголове,Q4520043,49.1002902,37.722122
node,256616035,village,Yampolivka,Ямполівка,Q4537717,49.07146,37.95544
node,256616047,village,Serednie,Середнє,Q4438517,49.1196731,37.7047299
node,256616053,village,Zelena Dolyna,Зелена Долина,Q4190592,49.129419,37.809583
node,256616059,village,Krymky,Кримки,Q4242888,49.13875,37.5729
node,256616066,village,Yatskivka,Яцьківка,Q4539817,49.17137,37.54784
node,256616075,town,Novoselivka,Новоселівка,Q4325835,49.07541,37.69735
node,256616082,town,Yampil,Ямпіль,Q4537719,48.9400784,37.9601051
node,256616090,village,Zakitne,Закітне,Q4184985,48.8995521,37.9465811
node,256616096,town,Yarova,Ярова,Q4538692,49.0600325,37.6395032
node,256616105,village,Oleksandrivka,Олександрівка,Q4061261,49.116024,37.5932922
node,256616113,village,Sosnove,Соснове,Q4429660,49.07275,37.55084
node,256616120,village,Korovii Yar,Коровій Яр,Q4233597,49.1615207,37.6233811
node,256616128,village,Kryva Luka,Крива Лука,Q4240629,48.8734701,37.9035405
node,256616136,village,Dibrova,Діброва,Q4161127,48.9183367,37.8561362
node,256616142,village,Ozerne,Озерне,Q4199826,48.89774,37.9117545
node,256616149,village,Kalenyky,Каленики,Q4209287,48.8441105,37.9166483
node,256616156,village,Ridkodub,Рідкодуб,Q4392185,49.18167,37.8043
node,256616166,village,Karpivka,Карпівка,Q4215879,49.17789,37.73289
node,256616173,village,Katerynivka,Катеринівка,Q4217329,49.1831546,37.8644009
node,256616181,village,Lypove,Липове,Q4262822,49.1601311,37.8219892
node,256616189,village,Nove,Нове,Q4323699,49.162708,37.8298212
node,256616199,village,Novoandriivka,Новоандріївка,Q4323137,48.1079093,37.0412309
node,256616211,village,Zaporizhzhia,Запоріжжя,Q4186982,48.1053608,37.0011772
node,256616225,hamlet,Bohdanivka,Богданівка,Q4089343,48.0915461,36.9647388
node,256616241,village,Sribne,Срібне,Q4438840,48.105829,37.013448
node,256616251,village,Ukrainka,Українка,Q4470431,48.1151871,37.0966358
node,256616261,village,Troitske,Троїцьке,Q4463591,48.10518,36.93947
node,256616277,village,Preobrazhenka,Преображенка,Q4377258,48.1152056,36.9794555
node,256616295,village,Horikhove,Горіхове,Q4361296,48.098572,36.91621
node,256616311,hamlet,Shevchenko Pershe,Шевченко Перше,Q4522181,48.37117,37.40459
node,256616324,hamlet,Myrne,Мирне,Q4295757,48.337285,37.3789437
node,256616338,village,Malynivka,Малинівка,Q4475102,48.3351179,37.4097797
node,256616352,village,Yasenove,Ясенове,Q4539217,48.1062547,37.0678773
node,256616358,village,Torske,Торське,Q4461330,49.0234501,37.9561085
node,256616365,town,Zarichne,Зарічне,Q4221602,49.0212883,37.9385185
node,256616379,town,Drobysheve,Дробишеве,Q4168310,49.0434703,37.7340668
node,256616386,village,,Леонтовичі,Q4359435,48.2637242,37.1435051
node,256616392,village,Kotlyne,Котлине,Q4161722,48.2553656,37.0501236
node,256616402,village,Zvirove,Звірове,Q4189580,48.251736,37.1264522
node,256616412,village,Solone,Солоне,Q4428619,48.21239,37.05062
node,256616421,village,Petrivka,Петрівка,Q4361009,48.1703765,37.2118628
node,256616430,village,Yurivka,Юріївка,Q4125300,48.14303,37.18949
node,256616445,village,Troianda,Троянда,Q4464037,48.2638129,37.1588171
node,256616462,village,Pustynka,Пустинка,Q4384109,48.1618185,37.1789914
node,256616470,village,Rivne,Рівне,Q4395275,48.29976,37.22005
node,256616477,village,Hryhorivka,Григорівка,Q4258435,48.1626317,37.2303718
node,256616486,village,Novooleksiivka,Новоолексіївка,Q4323099,48.13213,37.20177
node,256616489,village,Serhiivka,Сергіївка,Q4416918,48.31272,36.92539
node,256616497,village,Kalynivka,Калинівка,Q4209578,48.345451,36.827633
node,256616506,village,Krasnyi Lyman,Красний Лиман,Q4239509,48.3406194,37.2357796
node,256616515,hamlet,Sukhetske,Сухецьке,Q4447048,48.3764224,37.2224221
node,256616524,village,Samsonove,Самсонове,Q4407067,47.1018564,38.0015962
node,256616538,town,Siedove,Сєдове,Q1039619,47.0700428,38.160251
node,256616546,village,Obryv,Обрив,Q4329932,47.09865,38.19045
node,256616552,village,Bezimenne,Безіменне,Q4081092,47.1081639,37.9354742
node,256616560,village,Trudove,Трудове,Q4464356,47.89764,37.21558
node,256616567,town,Novoazovsk,Новоазовськ,Q2353526,47.1138718,38.0830911
node,256616589,village,Huselshchykove,Гусельщикове,Q4152797,47.16328,38.08102
node,256616626,village,Kozlivka,Козлівка,Q4226825,47.1755908,38.0879268
node,256616634,village,Taramchuk,Тарамчук,Q4451531,47.8033221,37.5805371
node,256616643,village,Uspenivka,Успенівка,Q12164916,47.9172764,37.2291246
node,256616660,village,Hannivka,Ганнівка,Q4066732,47.9070884,37.2601187
node,256616673,village,Stepne,Степне,Q4442102,47.7955881,37.5472476
node,256616682,village,Berezove,Березове,Q4085482,47.7676968,37.5815729
node,256616692,village,Vodiane,Водяне,Q4114226,47.8259615,37.312833
node,256616709,village,Solodke,Солодке,Q4423147,47.7895397,37.4922207
node,256616721,village,Maksymivka,Максимівка,Q4276297,47.892056,37.1067174
node,256616732,village,Novoukrainka,Новоукраїнка,Q4326058,47.8376713,37.1047405
node,256616740,village,Pavlivka,Павлівка,Q4341661,47.7562763,37.2167222
node,256616749,village,Prechystivka,Пречистівка,Q4377565,47.7789442,37.0752783
node,256616757,village,Voznesenka,Вознесенка,Q4114818,48.0600661,37.2562458
node,256616767,village,Vovchenka,Вовченка,Q4124238,48.0124807,37.3674402
node,256616778,hamlet,Kreminna Balka,Кремінна Балка,Q4240103,48.0715189,37.2795086
node,256616787,village,Izmailivka,Ізмайлівка,Q4198629,48.0551789,37.3455394
node,256616796,village,Novomykhailivka,Новомихайлівка,Q4324526,47.8552316,37.4863822
node,256616805,village,Heorhiivka,Георгіївка,Q4135762,47.9636088,37.4383199
node,256616815,village,Novoselydivka,Новоселидівка,Q4325253,48.0546546,37.2906886
node,256616829,village,Paraskoviivka,Парасковіївка,Q4345004,47.8691835,37.4424937
node,256616844,village,Syhnalne,Сигнальне,Q4418643,47.8456457,37.6438159
node,256616856,village,Kreminets,Кремінець,Q4240083,47.9161101,37.6218395
node,256616867,village,Maksymilianivka,Максимільянівка,Q4276136,47.9749625,37.3934093
node,256616878,village,Slavne,Славне,Q4422956,47.8364665,37.5674078
node,256616891,village,Kostiantynivka,Костянтинівка,Q4231408,47.86614,37.40819
node,256616914,village,Luhanske,Луганське,Q4267944,47.8915325,37.6825979
node,256616923,village,Katerynivka,Катеринівка,Q4217335,47.8756389,37.3455878
node,256616932,village,Antonivka,Антонівка,Q4067455,47.8817739,37.3578248
node,256616940,village,,Бажане Друге,Q4178671,48.0587231,37.4168494
node,256616949,village,Oleksandropil,Олександропіль,Q4061552,48.01257,37.39205
node,256616961,village,Zoriane,Зоряне,Q4194050,48.0355522,37.3962351
node,256616971,village,,Бажане Перше,Q4178672,48.07377,37.4263
node,256616981,village,Illinka,Іллінка,Q4199647,47.89215,37.31541
node,256616989,village,Romanivka,Романівка,Q4397291,47.90108,37.28451
node,256616996,village,Bohoiavlenka,Богоявленка,Q4089806,47.8600682,37.2139968
node,256617003,village,Yelyzavetivka,Єлизаветівка,Q4174835,47.8868463,37.3034198
node,256617009,village,Sukhi Yaly,Сухі Яли,Q4447054,47.9437821,37.1225025
node,256617019,hamlet,Yantarne,Янтарне,Q4538257,47.9404184,37.1639506
node,256617031,village,Zelenivka,Зеленівка,Q4190298,47.965573,37.0933009
node,256617044,village,Kostiantynopolske,Костянтинопольське,Q4339043,47.923988,37.185169
node,256617058,village,Dalnie,Дальнє,Q4154252,47.94451,37.27069
node,256617074,hamlet,Hihant,Гігант,Q4137973,47.9276373,37.1557752
node,256617085,village,Dachne,Дачне,Q4155439,47.99335,37.17842
node,256617092,village,Lisivka,Лісівка,Q4259818,48.09677,37.37961
node,256617117,hamlet,Dolynivka,Долинівка,Q4164994,48.09746,37.41291
node,256617127,village,Halytsynivka,Галицинівка,Q4132554,48.09772,37.44098
node,256617149,village,Illinka,Іллінка,Q4199640,48.01257,37.3064
node,256617162,town,Oleksandrivka,Олександрівка,Q4061278,47.9218584,37.5726397
node,256617168,hamlet,Stepanivka,Степанівка,Q4441918,48.00159,37.32021
node,256617175,village,Stari Terny,Старі Терни,Q4440966,48.0124158,37.2088873
node,256617185,village,Ostrivske,Острівське,Q4339049,48.0016639,37.3456675
node,256617191,town,Krasnohorivka,Красногорівка,Q2415374,48.01068,37.50449
node,256617199,village,Pobieda,Побєда,Q4366164,47.9163536,37.463079
node,256617205,town,Marinka,Мар’їнка,Q2494365,47.9401242,37.5022312
node,256617222,hamlet,Rybatske,Рибацьке,Q4401484,47.00672,37.45222
node,256617228,village,Chervone,Червоне,Q4512280,47.0181867,37.4449343
node,256617239,village,Shyroka Balka,Широка Балка,Q4524329,47.05676,37.41136
node,256617248,village,Komyshuvate,Комишувате,Q4211869,47.0839071,37.1703149
node,256617259,village,Demianivka,Дем’янівка,Q4157779,47.0531588,37.1886885
node,256617269,village,Ukrainka,Українка,Q6666837,47.1033926,37.1925851
node,256617278,village,Melekine,Мелекіне,Q4289319,46.9558527,37.3936405
node,256617290,town,Yalta,Ялта,Q4537455,46.9589448,37.2776416
node,256617299,village,Azovske,Азовське,Q4058433,46.9588456,37.3430177
node,256617310,village,Yurivka,Юр’ївка,Q4535279,46.9364296,37.194337
node,256617319,village,Berdianske,Бердянське,Q4084169,47.1063798,37.4492127
node,256617329,village,Ahrobaza,Агробаза,Q4057097,47.0980234,37.4469753
node,256617338,village,Pryazovske,Приазовське,Q4377615,47.1534275,37.3735825
node,256617345,village,Prymiske,Приміське,Q4388071,47.1206025,37.4540898
node,256617351,village,Shevchenko,Шевченко,Q4522156,47.1144982,37.4216682
node,256617358,village,Khomutove,Хомутове,Q4499675,47.2550884,38.1372478
node,256617365,village,Uzhivka,Ужівка,Q4258451,47.143864,37.853096
node,256617374,village,Vitava,Вітава,Q4112281,47.2677694,38.1505447
node,256617382,village,Bessarabka,Бессарабка,Q4085764,47.26696,38.11432
node,256617387,village,Shyrokyne,Широкине,Q4524371,47.09822,37.81769
node,256617395,village,Siedovo-Vasylivka,Сєдово-Василівка,Q4412947,47.22439,38.11123
node,256617401,town,Manhush,Мангуш,Q4280256,47.0568106,37.3078191
node,256617409,village,Berdianske,Бердянське,Q4084168,47.0897854,37.7836964
node,256617416,village,Samiilove,Самійлове,Q4406779,47.2554208,38.2511338
node,256617424,hamlet,Kholodne,Холодне,Q4499326,47.117311,38.2187765
node,256617436,village,Klynkyne,Клинкине,Q4223890,47.29236,38.24684
node,256617475,village,,Фролівське,Q4103505,47.2552375,38.2709136
node,256617482,village,Shcherbak,Щербак,Q4528786,47.21752,38.20238
node,256617489,village,Kovske,Ковське,Q4225861,47.2377268,38.2383573
node,256617492,village,Azov,Азов,Q4160833,47.1524644,37.8616184
node,256617500,village,Sakhanka,Саханка,Q4409428,47.1280029,37.8581776
node,256617506,hamlet,Ukrainske,Українське,Q4470630,47.2859601,37.9307776
node,256617518,village,Oleksandrivske,Олександрівське,Q4396709,47.2041203,38.1161401
node,256617524,village,,Паланка,Q7218085,47.2930877,37.9512391
node,256617529,hamlet,Sosnivske,Соснівське,Q4429700,47.2975631,37.9072533
node,256617534,hamlet,Kuznetsi,Кузнеці,Q4245190,47.2767875,38.3191625
node,256617539,village,Markyne,Маркине,Q7228147,47.1890419,38.1824878
node,256617544,hamlet,Vesele,Веселе,Q3593070,47.17186,37.90146
node,256617550,village,Patriotychne,Патріотичне,Q4347060,47.17039,38.008378
node,256617554,village,Sopyne,Сопине,Q4428916,47.0911404,37.7557168
node,256617564,village,Pavlopil,Павлопіль,Q4341897,47.2652488,37.779287
node,256617575,village,Lebedynske,Лебединське,Q4255951,47.12611,37.75065
node,256617580,village,Kalynivka,Калинівка,Q4209817,47.150133,37.6713995
node,256617587,village,Prymorske,Приморське,Q4378749,47.316071,37.9429564
node,256617592,village,Naberezhne,Набережне,Q4311158,47.31502,37.84541
node,256617596,hamlet,Pyshchevyk,Пищевик,Q4364108,47.24147,37.79236
node,256617601,hamlet,Chernenko,Черненко,Q4513388,47.2267964,37.7446031
node,256617614,hamlet,Vodiane,Водяне,Q4114229,47.1464938,37.7868182
node,256617625,village,Pikuzy,Пікузи,Q4229579,47.175022,37.811737
node,256617632,village,Shevchenko,Шевченко,Q4522143,47.27005,37.98317
node,256617634,village,Porokhnia,Порохня,Q4373134,47.24773,38.02883
node,256617639,village,Verkhnoshyrokivske,Верхньошироківське,Q4332987,47.23469,37.86198
node,256617644,village,Kulykove,Куликове,Q4246247,47.22919,37.88154
node,256617648,village,Khreshchatytske,Хрещатицьке,Q4238281,47.23125,37.92583
node,256617654,village,Zaichenko,Заїченко,Q4184240,47.1830388,37.8629738
node,256617658,hamlet,Roza,Роза,Q4396385,47.2077657,37.9943115
node,256617663,village,Mytkovo-Kachkari,Митьково-Качкарі,Q4296969,47.1719763,37.9591083
node,256617667,village,Kachkarske,Качкарське,Q4218004,47.19623,37.99862
node,256617671,hamlet,Vedenske,Веденське,Q4105769,47.19829,37.95116
node,256617674,village,Kozatske,Козацьке,Q4208148,47.23572,37.98077
node,256617679,suburb,Prymorske,Приморське,Q4378745,47.0825538,37.7094006
node,256617682,suburb,Pionerske,Піонерське,Q4363165,47.0903804,37.7324921
node,256617686,suburb,Vynohradne,Виноградне,Q4111684,47.09307,37.69134
node,256617690,village,Shevchenko,Шевченко,Q4522131,47.50317,38.25182
node,256617694,village,Marianivka,Мар’янівка,Q4283589,47.8819784,37.8540833
node,256617695,village,,Манжиків Кут,Q4209528,47.84374,37.98274
node,256617699,hamlet,,Верезамське,Q4221586,47.8296679,38.0082084
node,256617703,village,Kultura,Культура,Q4246611,47.6629992,38.3155651
node,256617707,village,Luzhky,Лужки,Q4268225,47.5830322,38.2596297
node,256617710,village,Pobieda,Побєда,Q4366174,47.6060395,38.2748573
node,256617714,hamlet,Svitlyi Luch,Світлий Луч,Q4410477,47.6897617,38.3089287
node,256617718,village,Kumachove,Кумачове,Q4246902,47.62573,38.2671
node,256617722,hamlet,Berestove,Берестове,Q4084806,47.5868149,38.3325704
node,256617726,hamlet,Vyshneve,Вишневе,Q4112868,47.6714868,38.2712472
node,256617730,village,Hlynka,Глинка,Q4139786,47.55501,38.24718
node,256617734,village,Chumaky,Чумаки,Q4517990,47.7873391,38.111696
node,256617739,village,Sarabash,Сарабаш,Q4229858,47.761341,37.791248
node,256617742,village,Kamianka,Кам’янка,Q4210953,47.79662,37.91073
node,256617747,village,Pishchane,Піщане,Q4360060,47.77164,37.8709
node,256617750,village,,Верхокам’янка,Q4125303,47.59432,38.17242
node,256617755,village,Kolosky,Колоски,Q4228510,47.6882584,38.2067468
node,256617758,hamlet,Shyroke,Широке,Q4524447,47.55947,38.14333
node,256617763,village,Kamianka,Кам’янка,Q4210970,47.57938,38.17474
node,256617766,village,Vesele,Веселе,Q4109829,47.6319524,38.0750214
node,256617771,hamlet,Burne,Бурне,Q4099813,47.6984941,38.2306559
node,256617775,village,Zelene,Зелене,Q4190733,47.6341152,38.1047581
node,256617780,village,,Кам’яне,Q4122533,47.67577,38.12779
node,256617785,village,Prydorozhnie,Придорожнє,Q4378175,47.85172,37.97055
node,256617792,village,Andriivka,Андріївка,Q4065622,47.6583307,38.0901449
node,256617796,village,Novozarivka,Новозар’ївка,Q4324005,47.63929,38.1356
node,256617800,village,Novobesheve,Новобешеве,Q4323244,47.81216,37.86747
node,256617803,village,Menchuhove,Менчугове,Q4290606,47.8515885,37.9835681
node,256617806,village,Obilne,Обільне,Q4329237,47.82906,37.88077
node,256617810,village,Novoselivka,Новоселівка,Q4325874,47.8357787,37.84206
node,256617814,village,Rozdolne,Роздольне,Q4388494,47.61955,38.01304
node,256617817,village,Vasylivka,Василівка,Q4104262,47.5996668,38.0163966
node,256617821,village,Rodnykove,Родникове,Q4395943,47.6840173,37.9455543
node,256617825,hamlet,Kypucha Krynytsia,Кипуча Криниця,Q4221103,47.6922444,37.9345552
node,256617830,village,Pidhirne,Підгірне,Q4367349,47.6836979,38.0650223
node,256617833,village,Zernove,Зернове,Q4191617,47.7122791,37.9222788
node,256617839,village,Osykove,Осикове,Q4339228,47.7814852,38.2057208
node,256617843,village,,Стахівське,Q4361370,47.693698,38.0799096
node,256617847,village,Shevchenko,Шевченко,Q4522145,47.711294,38.2112306
node,256617851,village,Shmidta,Шмідта,Q4525719,47.7192805,38.1689515
node,256617859,village,Stroitel,Строїтель,Q4444123,47.7167624,38.2207863
node,256617863,village,,Любівка,Q4258461,47.69311,38.16144
node,256617867,village,Prokhorivske,Прохорівське,Q4382223,47.7236247,38.1497557
node,256617872,village,Novokaterynivka,Новокатеринівка,Q4324201,47.7263838,38.1118823
node,256617875,village,Berehove,Берегове,Q4084250,47.71783,38.08762
node,256617879,village,Orlovske,Орловське,Q4336915,47.26095,37.74345
node,256617883,village,Chermalyk,Чермалик,Q4513241,47.3144247,37.806064
node,256617887,village,Staromarivka,Старомар’ївка,Q4440479,47.4419569,37.8700981
node,256617890,village,Hranitne,Гранітне,Q7284098,47.459479,37.8654154
node,256617893,village,Myrne,Мирне,Q4295789,47.4242451,37.7344444
node,256617898,village,Obilne,Обільне,Q4329239,47.4536147,37.7212216
node,256617903,village,Druzhne,Дружне,Q4168880,47.443,37.628
node,256617907,village,Bakhchovyk,Бахчовик,Q4079970,47.47681,37.6831
node,256617917,town,Andriivka,Андріївка,Q4065649,47.4625561,37.6528923
node,256617921,village,Zernove,Зернове,Q4191619,47.4040402,38.0981101
node,256617924,town,Boykivske,Бойківське,Q4454309,47.4124746,38.0187455
node,256617941,village,,Звитяжне,Q4361384,47.6305006,37.8427513
node,256617957,village,Styla,Стила,Q4444759,47.69775,37.84275
node,256617973,hamlet,Novomykhailivka,Новомихайлівка,Q4324534,47.55784,38.04642
node,256617976,village,Krasnopillia,Краснопілля,Q4238941,47.53879,38.10968
node,256617981,village,Sontseve,Сонцеве,Q4427886,47.54162,38.02849
node,256617986,village,Zakharivka,Захарівка,Q4188716,47.1393692,36.9770752
node,256617990,village,Sukhanivka,Суханівка,Q4065665,48.8182073,37.5540955
node,256617993,town,Bylbasivka,Билбасівка,Q4101046,48.8402826,37.5075495
node,256618000,village,Torets,Торець,Q4461089,48.8671869,37.4935928
node,256618013,town,Donetske,Донецьке,Q4166270,48.93431,37.6904
node,256618018,town,Raihorodok,Райгородок,Q4388922,48.8978246,37.7273816
node,256618022,village,Karpivka,Карпівка,Q4215891,48.8980892,37.6429382
node,256618026,village,Seleznivka,Селезнівка,Q4413510,48.8624836,37.6687861
node,256618035,village,Bilosaraiska Kosa,Білосарайська Коса,Q4082789,46.8993317,37.3388323
node,256618044,village,Buriakova Balka,Бурякова Балка,Q4100041,46.970987,37.3999627
node,256618052,village,Hlyboke,Глибоке,Q4140124,46.9966187,37.3944941
node,256618061,village,Ohorodnie,Огороднє,Q4331213,47.0116766,37.3717319
node,256618069,village,Portivske,Портівське,Q4373313,47.0010028,37.4229197
node,256618076,village,Urzuf,Урзуф,Q6682473,46.9153594,37.0984904
node,256618085,village,Babakh-Tarama,Бабах-Тарама,Q4074235,46.8944581,37.0851556
node,256618102,village,Starodubivka,Стародубівка,Q4440223,47.1049277,37.0392558
node,256618113,hamlet,Varvarivka,Варварівка,Q4103634,48.64437,37.31258
node,256618127,village,Dmytrivka,Дмитрівка,Q4162976,48.7561998,37.3818912
node,256618130,village,Novoandriivka,Новоандріївка,Q4323146,48.59888,37.34819
node,256618135,village,Bohorodychne,Богородичне,Q4089701,49.01516,37.50561
node,256618139,village,Dolyna,Долина,Q4164904,48.9958883,37.4307825
node,256618143,hamlet,Mazanivka,Мазанівка,Q4274461,48.99276,37.3524
node,256618148,village,Krasnopillia,Краснопілля,Q4238939,48.9880482,37.412463
node,256618153,village,Ivanivka,Іванівка,Q799994,48.91937,37.35008
node,256618158,village,Cherkaske,Черкаське,Q4513128,48.8354023,37.3884068
node,256618181,village,Novomykolaivka,Новомиколаївка,Q4324681,48.88744,37.37068
node,256618184,village,Maiachka,Маячка,Q4333219,48.7710373,37.3318247
node,256618188,village,Oleksandrivka,Олександрівка,Q4061320,48.8191157,37.3873405
node,256618193,village,Novoselivka,Новоселівка,Q4238284,48.8206024,37.4655909
node,256618197,village,Troitske,Троїцьке,Q4463614,48.8277,37.32571
node,256618202,hamlet,Yurkivka,Юрківка,Q4534987,48.7774602,37.7984085
node,256618206,village,Maiaky,Маяки,Q4286393,48.9429039,37.6228743
node,256618219,hamlet,Pershomarivka,Першомар’ївка,Q4359502,48.7348727,37.701441
node,256618221,village,Tykhonivka,Тихонівка,Q4458711,48.7180107,37.7841226
node,256618226,village,Tetianivka,Тетянівка,Q4452700,49.0369072,37.5902233
node,256618230,village,Myrne,Мирне,Q4295784,48.8612878,37.5425139
node,256618235,village,Pryshyb,Пришиб,Q4379384,49.0234,37.64551
node,256618238,village,Sydorove,Сидорове,Q4418904,48.9853646,37.6022459
node,256618242,village,Hlyboka Makatykha,Глибока Макатиха,Q4140069,48.9018583,37.5492025
node,256618250,village,Khrestyshche,Хрестище,Q4240359,48.920829,37.4899965
node,256618253,village,Adamivka,Адамівка,Q4057314,48.9440241,37.447386
node,256618257,village,Nykonorivka,Никонорівка,Q4321163,48.7692563,37.7439578
node,256618262,village,Orikhuvatka,Оріхуватка,Q4336270,48.8071,37.77614
node,256618266,village,Malynivka,Малинівка,Q4277894,48.7370744,37.7781957
node,256618270,village,Vasiutynske,Васютинське,Q4105208,48.7140635,37.731165
node,256618273,village,Oleksandrivka,Олександрівка,Q4061328,47.79903,38.05329
node,256618278,town,Novyi Svit,Новий Світ,Q4326783,47.8066532,38.0211415
node,256618283,town,Starobesheve,Старобешеве,Q4440090,47.749822,38.0252111
node,256618288,town,Kalmiouske,Кальміуське,Q1025487,47.6687951,38.0739208
node,256618293,village,Svitle,Світле,Q4410423,47.8150838,38.0900006
node,256618297,village,Horbatenko,Горбатенко,Q4143517,47.76117,38.10264
node,256618300,village,Voznesenka,Вознесенка,Q4114820,47.7665663,38.0424722
node,256618301,village,Andriivka,Андріївка,Q4065573,47.8269784,38.1292925
node,256618303,village,Rai-Oleksandrivka,Рай-Олександрівка,Q4388880,48.8105407,37.8516799
node,256618305,village,Pryvillia,Привілля,Q4377928,48.85989,37.26786
node,256618309,village,Maidan,Майдан,Q4274734,48.84727,37.25979
node,256618313,village,Prelesne,Прелесне,Q4376898,48.83182,37.29034
node,256618315,village,Rohanske,Роганське,Q4395372,48.65021,37.35763
node,256618317,village,Serhiivka,Сергіївка,Q4416917,48.67321,37.37583
node,256618319,village,Starodubivka,Стародубівка,Q4440225,48.8894955,37.7933082
node,256618320,village,Pyskunivka,Пискунівка,Q4363669,48.8879548,37.8366441
node,256618322,village,Komyshatka,Комишатка,Q4211864,48.2396112,38.357625
node,256618324,village,Maloorlivka,Малоорлівка,Q4278382,48.18603,38.33885
node,256618328,village,Slavne,Славне,Q4422968,48.2171727,38.3191736
node,256618330,village,Novoorlivka,Новоорлівка,Q4324791,48.18165,38.40932
node,256618332,hamlet,Dubivka,Дубівка,Q4169441,47.99892,38.20916
node,256618333,village,Zolotarivka,Золотарівка,Q4193148,48.0039,38.18684
node,256618335,village,Novopelahiivka,Новопелагіївка,Q4324872,47.98579,38.19534
node,256618337,hamlet,Novomykolaivka,Новомиколаївка,Q4324688,47.97815,38.17569
node,256618339,hamlet,Kruhlyk,Круглик,Q4241910,48.2606157,38.560753
node,256618341,hamlet,Vesele,Веселе,Q4109835,48.21616,38.57617
node,256618344,village,Kumshatske,Кумшацьке,Q4247029,48.20681,38.50588
node,256618348,village,Manuilivka,Мануйлівка,Q4280701,47.96425,38.66775
node,256618357,village,Shevchenko,Шевченко,Q4522137,48.17805,38.37104
node,256618365,village,Nikishyne,Нікішине,Q4320009,48.24414,38.52296
node,256618371,village,Petrivske,Петрівське,Q4361395,47.94296,38.66878
node,256618399,village,Krasnyi Luch,Красний Луч,Q4239526,48.1230547,38.5338318
node,256618413,village,Polove,Польове,Q4369634,48.2053141,38.4653231
node,256618422,village,Stizhkove,Стіжкове,Q4442748,48.1097906,38.4957648
node,256618433,village,Rozsypne,Розсипне,Q4390539,48.1505674,38.5764775
node,256618442,village,,Сулинівка,Q4336822,48.16955,38.46622
node,256618449,village,Mykhailivka,Михайлівка,Q4297652,48.1510463,38.4259451
node,256618453,village,Stepne,Степне,Q4442117,48.1551395,38.4503921
node,256618464,village,Petropavlivka,Петропавлівка,Q4361517,48.1391949,38.5327962
node,256618469,village,Shevchenko,Шевченко,Q4522161,48.15642,38.30048
node,256618482,village,Sadove,Садове,Q4404767,48.0282765,38.3980497
node,256618489,village,Zaroshchenske,Зарощенське,Q4187544,47.98931,38.44768
node,256618499,village,Zakharchenko,Захарченко,Q4188797,47.97798,38.42365
node,256618504,hamlet,,Відродження,Q4161715,48.2055379,38.5168525
node,256618505,village,Striukove,Стрюкове,Q4444434,48.18226,38.58879
node,256618513,village,Tymofiivka,Тимофіївка,Q4457625,48.19625,38.553
node,256618516,village,Rozivka,Розівка,Q4396675,48.16938,38.22006
node,256618518,town,Verkhnotoretske,Верхньоторецьке,Q4108526,48.22431,37.87502
node,256618520,village,Chervona Zoria,Червона Зоря,Q4512068,47.8759486,38.9067097
node,256618521,village,Tarany,Тарани,Q4451590,47.8888473,38.7833872
node,256618523,village,Saurivka,Саурівка,Q4409154,47.9062652,38.7536994
node,256618525,village,Marynivka,Маринівка,Q4281528,47.9037166,38.8471044
node,256618530,village,Stepanivka,Степанівка,Q4441940,47.9271088,38.8063004
node,256618531,village,Molodetske,Молодецьке,Q7224434,48.0304348,38.4675799
node,256618534,village,Zachativka,Зачатівка,Q4188995,48.0298593,38.3798906
node,256618536,village,,Ясногорівка,Q4238462,48.2067099,37.7245003
node,256618548,town,Ocheretyne,Очеретине,Q4340682,48.2428705,37.6129934
node,256618552,town,Keramik,Керамік,Q4219484,48.25307,37.68268
node,256618554,village,,Східне,Q4126700,48.2303068,37.5338312
node,256618556,town,Blahodatne,Благодатне,Q4178667,48.2078617,37.4378071
node,256618558,village,Troitske,Троїцьке,Q4463625,48.2626912,37.8579701
node,256618561,village,,Бетманове,Q4239568,48.262852,37.914928
node,256618566,village,Vasylivka,Василівка,Q4104274,48.1716597,37.8597122
node,256618574,village,Novopokrovske,Новопокровське,Q4325010,48.2041932,37.5640489
node,256618579,hamlet,,Сонячне,Q4422780,48.1645158,37.492236
node,256618584,village,Novoselivka Persha,Новоселівка Перша,Q4325892,48.1971,37.53015
node,256618588,hamlet,Mezhove,Межове,Q4288678,48.1793655,37.490892
node,256618593,village,Novoselivka Druha,Новоселівка Друга,Q4325890,48.20852,37.79177
node,256618597,village,Novobakhmutivka,Новобахмутівка,Q4323202,48.2495402,37.7903512
node,256618603,village,Vesele,Веселе,Q4109796,48.1875825,37.75503
node,256618608,village,Kamianka,Кам’янка,Q4211016,48.1734596,37.7857046
node,256618612,village,Umanske,Уманське,Q4475307,48.15445,37.56534
node,256618617,village,Yasnobrodivka,Яснобродівка,Q4539362,48.1371397,37.545281
node,256618622,village,Semenivka,Семенівка,Q4415943,48.1826,37.63092
node,256618627,village,Tonenke,Тоненьке,Q4460500,48.1397049,37.6413088
node,256618632,village,,Криничне,Q4254847,48.1484198,37.6817229
node,256618638,village,Stepove,Степове,Q4361401,48.2027125,37.6451738
node,256618643,village,Orlivka,Орлівка,Q4336813,48.1635351,37.645097
node,256618646,village,Berdychi,Бердичі,Q4084109,48.1953,37.64843
node,256618651,village,Konkove,Конькове,Q4232039,47.33219,38.16788
node,256618656,hamlet,Fedorivka,Федорівка,Q4494124,47.3586469,37.7211899
node,256618662,village,,Білокриничне,Q4209589,47.3212649,38.1058486
node,256618668,village,Ivanivka,Іванівка,Q800001,47.3433455,38.1809844
node,256618673,village,Samsonove,Самсонове,Q4407071,47.292343,38.1577364
node,256618677,hamlet,,Олександрівське,Q4333203,47.2880715,38.0911685
node,256618686,hamlet,Kotliarevske,Котляревське,Q4236126,47.4672,38.28984
node,256618691,village,Kuznetsovo-Mykhailivka,Кузнецово-Михайлівка,Q4245132,47.46128,38.2156
node,256618696,village,Hryhorivka,Григорівка,Q4149173,47.4080578,37.8984732
node,256618702,village,Lukove,Лукове,Q4269051,47.35253,37.93278
node,256618710,hamlet,Kaplany,Каплани,Q4213080,47.3366739,37.8613071
node,256618714,village,Zaporozhets,Запорожець,Q4186860,47.3746798,37.9720943
node,256618719,village,Petrivske,Петрівське,Q4361388,47.38403,37.96154
node,256618724,village,Mykolaivka,Миколаївка,Q4320363,47.3694165,37.8586799
node,256618728,village,Shevchenko,Шевченко,Q4522169,47.3867998,37.935709
node,256618729,village,Tavrycheske,Тавричеське,Q4449487,47.32893,37.85974
node,256618736,village,Mykhailivka,Михайлівка,Q4297627,47.39133,38.1962
node,256618745,village,Hrekovo-Oleksandrivka,Греково-Олександрівка,Q4148491,47.40935,38.1823
node,256618747,village,Zelenyi Hai,Зелений Гай,Q4190851,47.41871,38.25748
node,256618749,village,Zori,Зорі,Q4193941,47.3711871,38.1997593
node,256618751,village,Novooleksandrivka,Новоолександрівка,Q4323056,47.39356,38.25388
node,256618753,village,,Лавринове,Q4388087,47.36326,38.18487
node,256618755,village,Sadky,Садки,Q4404566,47.37768,38.18985
node,256618757,village,Ternivka,Тернівка,Q4456012,47.3752506,38.1272029
node,256618770,village,,Грінталь,Q4298308,47.47364,38.03123
node,256618772,village,Bohdanivka,Богданівка,Q4089368,47.4850338,38.0502729
node,256618774,hamlet,Vershynivka,Вершинівка,Q4109276,47.4881837,38.1468726
node,256618779,village,,Майорове,Q4239554,47.49939,37.97004
node,256618789,village,Nova Marivka,Нова Мар’ївка,Q4322186,47.4493846,37.9428407
node,256618791,village,,Чирилянське,Q4333210,47.50145,38.18848
node,256618792,village,,Чорне,Q4349504,47.4823454,37.9689523
node,256618794,village,Rozivka,Розівка,Q4396670,47.50866,38.1477
node,256618796,hamlet,Malovodne,Маловодне,Q4278109,47.3700125,37.6779088
node,256618798,village,Kamianka,Кам’янка,Q4211005,47.4215508,37.6924171
node,256618799,hamlet,Zaporizke,Запорізьке,Q4186943,47.38223,37.65452
node,256618801,village,Novoselivka,Новоселівка,Q4325877,47.4035403,37.7329807
node,256618803,village,Volia,Воля,Q4124834,47.4509646,38.078921
node,256618805,village,,Кам’янувате,Q4349509,47.4258811,38.1270259
node,256618807,village,Stepanivka,Степанівка,Q4441930,47.36678,37.6365
node,256618808,village,Novoselivka Druha,Новоселівка Друга,Q4325888,47.3821008,37.7581572
node,256618810,hamlet,Chumak,Чумак,Q4517982,47.294217,38.0081158
node,256618814,village,Dersove,Дерсове,Q4159044,47.311584,37.9978952
node,256618816,village,Svobodne,Свободне,Q4411121,47.3624789,38.0629705
node,256618837,village,Cherevkivske,Черевківське,Q4512641,47.4610132,38.1440927
node,256618866,village,Bila Kamianka,Біла Кам’янка,Q4081617,47.541878,37.8587049
node,256618884,village,Starolaspa,Староласпа,Q4440463,47.56093,37.98557
node,256618885,village,Novohryhorivka,Новогригорівка,Q4323511,47.50265,37.82738
node,256618888,village,Starohnativka,Старогнатівка,Q3497208,47.5396027,37.7803336
node,256618890,village,Ternove,Тернове,Q4456032,48.0076081,38.5581407
node,256618892,hamlet,Shaposhnykove,Шапошникове,Q4520347,47.96116,38.45695
node,256618893,village,Novolaspa,Новоласпа,Q4324382,47.5737341,37.8770709
node,256618895,village,Velyka Shyshivka,Велика Шишівка,Q4106354,47.9754945,38.5166076
node,256618897,village,Rivne,Рівне,Q4395305,48.1027458,38.583219
node,256618899,village,Dmytrivka,Дмитрівка,Q4162983,47.93747,38.93658
node,256618902,village,Balochne,Балочне,Q4076855,48.1142948,38.555556
node,256618909,village,Zrubne,Зрубне,Q4194187,47.99686,38.88542
node,256618911,village,Kozhevnia,Кожевня,Q4226315,47.88031,38.92688
node,256618913,hamlet,Verkhnii Kut,Верхній Кут,Q4108696,47.9476,39.04172
node,256618914,village,Dibrivka,Дібрівка,Q4161164,47.90116,39.03803
node,256618916,village,Rozsypne,Розсипне,Q4390535,47.98614,38.87375
node,256618918,hamlet,Chuhuno-Krepynka,Чугуно-Крепинка,Q4517564,47.99626,38.9655
node,256618919,village,Latysheve,Латишеве,Q4255079,47.9567588,38.8614651
node,256618921,hamlet,Perederiieve,Передерієве,Q4350248,48.0087479,38.9043123
node,256618923,village,Mineralne,Мінеральне,Q4294151,48.10252,37.83288
node,256618929,village,Kruta Balka,Крута Балка,Q4242350,48.1477166,37.8209919
node,256618930,hamlet,Kashtanove,Каштанове,Q4218293,48.1207904,37.8312011
node,256618936,village,Vesele,Веселе,Q4109826,48.06347,37.72782
node,256618938,village,Yakovlivka,Яковлівка,Q4537000,48.08973,37.82661
node,256618940,village,Opytne,Опитне,Q4335583,48.0965542,37.7192788
node,256618951,village,Soloviove,Соловйове,Q4428121,48.22655,37.59796
node,256618953,village,Arkhanhelske,Архангельське,Q4070637,48.26886,37.64053
node,256618954,village,Novoselivka,Новоселівка,Q4325885,48.26843,37.84953
node,256618956,village,Panteleimonivka,Пантелеймонівка,Q4344327,48.3012281,37.7715839
node,256618958,village,Sokil,Сокіл,Q4426969,48.23273,37.55436
node,256618961,village,Spartak,Спартак,Q4430701,48.0805344,37.7688496
node,256618962,village,Novobakhmutivka,Новобахмутівка,Q4323203,48.22552,37.61856
node,256618964,village,Novokalynove,Новокалинове,Q4324166,48.2470053,37.6975904
node,256618966,village,Netailove,Нетайлове,Q4317906,48.108315,37.550691
node,256618968,village,Pisky,Піски,Q4359633,48.06604,37.67452
node,256618970,village,,Авдіївське,Q4349529,48.0968262,37.5943309
node,256618972,village,Nevelske,Невельське,Q4315655,48.0602692,37.5747988
node,256618973,village,Pivnichne,Північне,Q7211240,48.1277216,37.6687691
node,256618976,village,Oleksandropil,Олександропіль,Q4396678,48.281651,37.774769
node,256618978,village,Vodiane,Водяне,Q4114244,48.096103,37.666083
node,256618980,village,Lozove,Лозове,Q4265629,48.0038678,37.64062
node,257541146,village,Buzova,Бузова,Q4098378,50.4165548,30.0434386
node,257542221,village,Muzychi,Музичі,Q4306708,50.360413,30.107588
node,257543231,village,Zhornivka,Жорнівка,Q4181124,50.320969,30.164751
node,258057686,city,Berdiansk,Бердянськ,Q33292,46.755678,36.7887623
node,258976070,suburb,,Велика Вергунка,Q4091228,48.6114328,39.3801105
node,259980476,town,Novovolynsk,Нововолинськ,Q591719,50.7224829,24.1648399
node,259981514,town,Ustyluh,Устилуг,Q147292,50.8622192,24.1505139
node,259984108,village,Verba,Верба,Q4107369,50.93446,24.343929
node,259984311,town,Volodymyr,Володимир,Q33544,50.8474669,24.319319
node,260342645,town,Liuboml,Любомль,Q974468,51.2234546,24.0315783
node,260893514,town,Shatsk,Шацьк,Q2638835,51.4909494,23.9219323
node,260940348,town,Ivanychi,Іваничі,Q669677,50.6405719,24.3614426
node,260943265,town,Sheptytskyi,Шептицький,Q156825,50.3940289,24.2396098
node,260954473,town,Zhovkva,Жовква,Q864836,50.056134,23.9711967
node,261704180,town,Sokal,Сокаль,Q1000927,50.4791313,24.2770538
node,261709042,town,Horodok,Городок,Q930449,49.784596,23.6465626
node,262290470,town,Yaremche,Яремче,Q146524,48.4504129,24.550955
node,262290472,town,Vorokhta,Ворохта,Q925231,48.2929828,24.5635786
node,262307188,village,Dzembronia,Дземброня,Q4160771,48.099358,24.686344
node,262307344,village,Bystrets,Бистрець,Q4101111,48.126553,24.664478
node,264282090,town,Chuhuiv,Чугуїв,Q889618,49.836626,36.6899391
node,265056942,city,Cherkasy,Черкаси,Q157055,49.4447056,32.0588085
node,265057614,city,Sumy,Суми,Q156752,50.9119775,34.8027723
node,265058149,city,Kremenchuk,Кременчук,Q156724,49.0629553,33.403516
node,265058407,city,Nikopol,Нікополь,Q156760,47.5692061,34.3917272
node,265059962,city,Pavlohrad,Павлоград,Q237206,48.5316759,35.8703695
node,265776469,village,Raihorodka,Райгородка,Q4388918,48.823685,39.070389
node,266318137,town,Balaklava,Балаклава,Q748363,44.5121316,33.5990374
node,266930712,village,Peremozhne,Переможне,Q4350626,48.397861,39.384747
node,267082978,village,Verkhnia Orikhivka,Верхня Оріхівка,Q4108920,48.3555799,39.3389675
node,267110729,town,Tysmenytsia,Тисмениця,Q156588,48.9018102,24.8484719
node,267144553,village,Rubizhne,Рубіжне,Q4399029,50.1616375,36.8241319
node,268079791,village,Lenkivtsi,Ленківці,Q4258521,48.506092,26.758886
node,268079878,town,Kelmentsi,Кельменці,Q1738337,48.4654946,26.8318791
node,268080348,town,Khotyn,Хотин,Q45883,48.5068418,26.4859086
node,268081010,city,Kamianets-Podilskyi,Кам’янець-Подільський,Q193965,48.6781294,26.5854027
node,268459612,city,Ivano-Frankivsk,Івано-Франківськ,Q156726,48.9224763,24.710334
