name,aliases,place,wikidata,group_id,usage,lon,lat,cid,region_id
novoprokopivka,novoprokopevka;novoprokopivka;novoprokopovka,village,Q4325070,2,0,35.831909,47.420078,590161709722277909,71980
voronivka,voronivka;voronovka,hamlet,Q4125689,,0,31.030078,46.656687,586952020347313102,71022
tiahynka,tiahynka;tjahynka;tyaginka;tyahynka,village,Q4467832,2,0,33.059231,46.776348,588063106748537631,71022
zahirne,zaghirne;zagirne;zagornoe;zagornoye;zagornye;zahirne,hamlet,Q4183525,1,0,36.17329,47.567606,591492248287495914,71980
balka zhuravka,balka zhuravka;nevske;nevskoe, village,Q4315894,3,0,37.97493,49.157982,580799658714843658,71971
kornylivka,kirove;kornylivka,village,Q4221590,,0,31.3258,49.481731,5990717705936994116,91278
verkhnia tokmachka,tokmachka verkhnya;upper tokmachka;verkhna tokmachka;verkhnaya tokmachka;verkhnia tokmachka;verkhniaya tokmachka;verkhnya tokmachka;verkhnyaya tokmachka;verkhnyaya tokmachna,village,,2,0,36.3389,47.4598,604901722883441812,71980
pisky-radkivski,peski radkovskie;piski radkivski;pisky radkivski;pisky radkovski,village,Q4359614,3,0,37.61095,49.265369,598140201243015878,71254
plyashevka,pliashivka;plyashevka;płaszówka,village,Q4366022,4,0,25.25208,50.32699,602699833001371120,71236
yevpatariya,evpatoriya;kezlev;khozlev;kozlev;yevpatariya;yevpatoria;yevpatoriya,city,Q33345,6,0,33.367905,45.190764,580853737412046889,72639
severodonetsk,liskhimstroy;severodonetsk;severskodonetsk;sievierodonetsk;siverskodonetsk,city,Q160584,3,0,38.493648,48.94787,596011004078779208,71971
melitopol,melitopol,city,Q33349,2,0,35.382728,46.846727,587679616388156568,71980
tokmak,tokmak,town,Q760235,2,0,35.709221,47.255019,589505818032567845,71980
chervonohryhorivka,chervonogrigorovka;chervonohryhorivka,urban type settlement,Q3516605,1,1,34.50583,47.61889,591068632076327270,101746
vesele,vesele;veseloye,village,Q4109831,2,1,35.739726,47.189406,589224012343405902,71980
novoandriivka,novoandreyevka;novoandriivka,village,Q4323143,2,1,35.699274,47.546986,590759806749069130,71980
zatyshshia,zatishye;zatyshshia,village,Q4188392,2,1,36.32011,47.68719,591361978344458350,71980
vesele,vesele;veseloye;veselye;vessele;vesyoloye;wesele,village,Q4109794,2,0,34.93067,47.998248,592697962280228078,71980
orikhiv,orekhiv;orekhov;orichiv;orikhiv,city,Q521105,2,2,35.7875,47.5675,590847913708267500,71980
zelenyi hai,zelenyi gay;zelenyi hai;zelenyy gay;zelenyy hai;zelyony gay;zelyonyy gay,village,Q4190855,1,1,34.379167,47.566111,590841947997285023,101746
kamianske,kamenskoye;kamianske,village,Q4230435,1,1,34.42606,47.61719,591061330631844300,101746
musiivka,musievka;musiivka;musiovka,village,Q4308352,1,1,34.44765,47.61139,591036419821549090,101746
novokamianske,novokamenskoye;novokamianske,village,Q4230441,1,1,34.41,47.6,590987500144010000,101746
zelenyi hai,zeleny gai;zelenyi hai,village,Q4294214,1,1,34.54,47.59,590944550471180000,101746
pershotravneve,pershotravneve;pershotravnevoye,village,Q4230442,1,1,34.38,47.62,591073399489900000,101746
vesele,vesele;veseloye;veselye;vesseie;vesyoloye;wesele,settlement,q2064567,2,0,34.921194,47.018861,588491527145091050,71980
stepove,stepove;stepovoye,village,Q4442207,2,1,35.482361,47.54472,590750070057992185,71980
shcherbaky,scherbaki;shcherbaky,village,Q4528792,2,1,35.582167,47.550818,590776265063630295,71980
prymorske,primorskoye;prymorske,village,Q3211683,2,1,35.294284,47.624383,591092224332472652,71980
kamianske,kamenskoye;kamianske,village,Q4211413,2,1,35.366333,47.543139,590743284009548477,71980
dobropillia,dobropillia;dobropolye,village,Q4163752,2,1,36.19516,47.782489,591771284432674904,71980
temyrivka,temirovka;temyrivka,village,Q4454456,2,1,36.572395,47.825043,591954052471366123,71980
mala tokmachka,mala tokmachka;malaya tokmachka,village,Q4277416,2,1,35.898056,47.5375,590719064689498056,71980
novodarivka,novodarivka;novodarovka,village,Q4323563,2,1,36.63474,47.78303,591773608010421620,71980
robotyne,robotino;robotyne,village,Q4386777,2,2,35.826111,47.443056,590313430798122687,71980
novodanylivka,novodanilovka;novodanylivka,village,Q4323554,2,1,35.824939,47.525775,590668706197879339,71980
novoandriivka,novoandriivka;novoandriyivka,village,none,2,0,35.4571,47.5043,590576471774829900,71980
stepove,stepnoye;stepove;stepovoe,village,q4442207,2,0,35.4829,47.54305,590742901757575700,71980
solodke,sladkoe;sladkoye;solodke;solodkoe,village,Q4423146,1,0,36.32028,47.78583,591785633918535960,71980
solodke,sladkoe;sladkoye;solodke;solodkoe,village,Q4423148,2,0,35.19444,47.14556,589035695206800200,71980
pryvilne,privolne;privolnoye;pryvilne,village,Q4377945,2,0,35.60017,48.05797,592954466317749290,71980
mala tokmachka,mala tokmachka;mala tokmachku;malaya tokmachka;malaya tokmachku,village,Q4025836,1,0,35.88333,47.65,591202248510283330,71980
nove zaporizhzhia,nove zaporizhzhia;novoe zaporozhye;novoye zaporozhye,village,Q4392577,1,0,34.93333,47.82806,591967010386059090,71980
vasiukivka,vasiukivka;vasyukivka;vasyukovka,village,Q4173796,,<usage>,38.0217,48.728,595832223257509700,71973
huliaipole,gulyai pole;gulyaipole;gulyaypole;huliaipole;huljajpole,city,Q640649,2,2,36.263169,47.664439,591264263543450113,71980
zaporizhzhia,zaporizhzhia;zaporizhzhia city;zaporizhzhya;zaporozhye;zaporozhye city;zaporozhzhya,city,Q44279,2,0,35.1396,47.8388,592013138335024400,71980
stepnohirsk,stepnogorsk;stepnohirsk;stepnohirsk urban;stepnohirske, settlement,Q757912,2,,35.35361,47.60361,591003004976892170,71980
dnipro,dnepr;dnepropetrovsk;dnipro;dnipropetrovsk;yekaterinoslav,city,Q48256,5,0,34.9955705,48.4661224,594707461513974386,101746
donetsk,donetsk;stalin;stalino;yuzovka,city,Q43070,5,0,37.7621125,47.9826086,592630793289517377,71973
valley of ghosts,dolina privideniy;dolina privideny;valley of ghosts,locality,Q4164930,,0,34.4075426,44.7499554,578746650076879223,72639
katsiveli,katsiveli,town,Q3887476,,0,33.972685,44.3961499,577227069172283085,72639
liubymivka,liubomivka;liubymivka;liubymovka;lyubimovka;lyubomovka;lyubymivka,village,Q4271538,5,0,35.1773623,48.3762849,594321618832152722,101746
pavlohrad,pavlagrad;pavlograd;pavlohrad,city,Q237206,5,0,35.8754525,48.5303995,594983537717673853,101746
mariupol,mariupol;zhdanov,city,Q37133,5,0,37.6105024,47.1285537,588962654995380486,71973
apostolove,apostolove;apostolovo,town,Q475572,1,0,33.7152112,47.6622205,591254733008472331,101746
kryvyi rih,krivoy rog;kryvyi rih,city,Q157137,1,0,33.3697346,47.9228867,592374289248273287,101746
bohodukhiv,bogodukhov;bohodukhiv,town,Q889930,3,0,35.5247811,50.1584146,601975808899720621,71254
pokrov,ordzhonikidze;pokrov,town,Q639476,1,0,34.0852033,47.6530165,591215202129849939,101746
snizhne,snezhnoe;snizhne,town,Q1749424,5,0,38.7481053,48.0420724,592886184930825417,71973
nova nadiia,nova nadiia;novaya nadiia;novaya nadiya,village,Q4311914,1,0,33.5771466,48.0150436,592770100549578171,101746
zaliznyi port,zaliznyi port;zhelezny port;zhyeleznyy port,village,Q934628,2,0,32.2905656,46.1224444,584641445443881990,71022
luhansk,lugansk;luhansk;voroshilovgrad;voroshylovhrad,city,Q134279,,0,39.3568414,48.5863352,595223776716857001,71971
yevpatoriya,evpatoriya;yevpatoriya,city,Q33345,,0,33.4009516,45.2007999,580683014606437752,72639
kherson,kherson,city,Q156732,2,0,32.6354988,46.6508536,586910949113106283,71022
makiivka,makeevka;makeyevka;makiivka;makiovka;makiyivka,city,Q157134,5,0,37.9614353,48.056729,592949136265696219,71973
khartsyzk,khartsyzk;khartsyzsk,town,Q1003757,5,0,38.1419875,48.0404125,592879059579475235,71973
kamianske,dneprodzerzhinsk;dniprodzerzhynsk;kamenskoe;kamianske;kamianskoe;kamianskoye;kamyanske,city,Q156719,,0,34.6036554,48.535842,595006910928426887,101746
sudak,sudak,town,Q7830,,0,34.9758655,44.8561632,579202809964021113,72639
chystiakove,chistyakovo;chystiakove;torez,town,Q162084,5,0,38.6180452,48.0333951,592848913204500669,71973
dokuchaievsk,dokuchaevsk;dokuchaievsk,town,Q2416554,5,0,37.6796034,47.7520823,591640687363589875,71973
nikopol,nikopol,city,Q156760,1,0,34.3751381,47.5762274,590885395886447330,101746
skadovsk,skadovsk,town,Q669688,2,0,32.9104915,46.1210716,584635552749371803,71022
stepanivka,stepanivka;stepanovka,village,Q4441936,2,0,32.5793604,46.6943481,587097754420622368,71022
byriuchyi island,biryúchiy óstrov;biryúchy óstrov;byriuchyi island,locality,Q4087206,2,0,35.1103387,46.1502965,584761073170797251,71022
lenino,lenino;sem kolodezey;yedi kuyu,town,Q1817745,,0,35.7767149,45.301236,581114383944154571,72639
vilnohirsk,vilnohirsk;volnogorsk,town,Q577225,,0,34.0404238,48.4900728,594810334569693032,101746
shakhtarsk,shakhtarsk;shakhtyorsk,town,Q29756,5,0,38.4603575,48.0650244,592984763019915462,71973
alchevsk,alchevsk,city,Q161144,4,0,38.802241,48.4762492,594750960946554945,71971
perevalsk,perevalsk,town,Q2354490,4,0,38.8069026,48.4384152,594588465153882743,71971
amvrosiivka,amvrosievka;amvrosiivka;amvrosiovka,town,Q1996358,5,0,38.5035221,47.7909497,591807624153274722,71973
antratsyt,antratsit;antratsyt,town,Q609028,,0,39.0853923,48.1248844,593241859762879056,71971
zalizne,artemove;artyomovo;nelepovskiy;nelepovsky;zalizne;zaliznoe;zheleznoe;zhyeleznoe,town,Q1937296,5,0,37.8878488,48.371296,594300191243023465,71973
toretsk,dzerzhinsk;dzerzhynsk;toretsk,town,Q2416525,5,0,37.8451329,48.3927605,594392382715989389,71973
pivnichne,kirove;kirovo;pivnichne;pivnichnoe;pivnichnoye;pivnichny;severnoe;severnoye,town,Q4221569,5,0,37.9115761,48.3957247,594405112999121176,71973
pokotylivka,pokotilovka;pokotylivka;pokotylovka,town,Q4369132,3,0,36.1749706,49.9143411,600927519052566907,71254
barvinkove,barvenkovo;barvinkove,town,Q809665,4,0,37.0270321,48.9062573,596597826946830808,71254
bile,beloe;bile,town,Q1981596,,0,39.0375138,48.4928902,594822433497562954,71971
beregovoe,beregove;beregovoe;beregovoye,village,Q3920757,,0,35.4301009,45.0975625,580239615069729749,72639
bilopillia,belopole;bilopillia,town,Q591896,3,0,34.3028262,51.1468372,606221049063145578,71250
valky,valki;valky,town,Q1104747,3,0,35.6177803,49.8380958,600600049270526196,71254
velyka lepetykha,bolshaya lepetykha;velikaya lepetikha;velyka lepetykha,town,Q2010740,2,0,33.9336809,47.175477,589164187742133873,71022
velyka novosilka,bolshaya novosilka;bolshaya novosyolka;bolshoy yanisol;velikaya novosyolka;velyka novosilka;velíkaya novosiolka,town,Q4106309,5,0,36.8399734,47.8441857,592036271030581029,71973
verkhnodniprovsk,verkhnedneprovsk;verkhnodniprovsk,town,Q639428,,0,34.3420408,48.6457323,595478884884322713,101746
panteleimonivka,panteleimonivka;panteleimonovka;panteleymonovka,town,Q4344325,5,0,37.9791426,48.1988536,593559554197690631,71973
pokrovsk,krasnoarmeysk;krasnoarmiisk;krasnoarmiysk;pokrovsk,town,Q1000446,5,0,37.1731233,48.2823339,593918102361721987,71973
popasna,popasna;popasnaya,town,Q2350804,4,0,38.380386,48.6342059,595429381095307362,71971
mykolaivka,mykolaevka;mykolaivka;mykolayivka;nikolaevka;nikolayevka,town,Q2415962,4,0,37.7668703,48.8502994,596357493462588373,71973
selydove,selidovo;selydove,town,Q951436,5,0,37.2967376,48.1478838,593340644008898402,71973
nova kakhovka,nova kakhovka;novaya kakhovka,town,Q987491,2,0,33.3466466,46.7532017,587350530426628439,71022
sviatohirsk,slavyanogorsk;slovianohirsk;sviatohirsk;svyatogorsk,town,Q1020087,4,0,37.5614664,49.040532,597174533681035642,71973
voloshino,voloshino;voloshyne,village,Q4124099,,0,33.6465535,46.1129436,584600643255925978,72639
ishun,ishun,village,Q4205706,,0,33.8250023,45.9230661,583785123455874537,72639
perekop,perekop,village,Q532838,,0,33.6929322,46.1610472,584807244067811843,72639
suvorovo,dzhulga;suvorovo,village,Q4445173,,0,33.6884214,46.0879243,584493183174221925,72639
kadiivka,kadievka;kadiivka;stakhanov,town,Q837093,4,0,38.6487208,48.5620129,595119314521575569,71971
rubizhne,rubezhnoe;rubizhne;rubizhnoe;rubizhnoye;rubizhny,town,Q922375,4,0,38.3850047,49.0126602,597054824353385069,71971
mospyne,mospino;mospyne,town,Q2415358,5,0,38.0651158,47.8793066,592187110283241692,71973
mykolaivka,mykolaevka;mykolaivka;mykolayivka;nikolaevka;nikolayevka,village,Q4320316,5,0,37.3850772,48.1868481,593507993114708085,71973
kreminna,kremennaya;kreminna,town,Q2350295,4,0,38.2053554,49.0181444,597078382248823979,71971
otamanivka,atamanovka;molodogvardeysk;molodogvardeyskoe;molodohvardiisk;otamanivka;otamanovka,town,Q2238005,,0,39.6397207,48.3446423,594185713186467753,71971
lozova,lozova;lozovaya;lozovaya station,town,Q889630,,0,36.3149946,48.8852986,596507817316496499,71254
shchastia,schaste;shchastia,town,Q391938,,0,39.2170227,48.7483998,595919840591543422,71971
holubivka,golubivka;golubovka;holubivka;holubovka;kirovsk,town,Q2234599,4,0,38.6491655,48.6449582,595475560583942734,71971
pryvillia,privole;privolia;privolya;privolye;pryvillia,town,Q288160,4,0,38.2957078,49.0020504,597009259045252508,71971
pivdenne,leninskoe;pivdenne;pivdennoe;pivdennoye;pivdenny;yuzhnoe;yuzhnoye,town,Q4258428,5,0,37.9133905,48.3645292,594271127199356974,71973
mykolaivka,mykolaevka;mykolaivka;mykolayivka;nikolaevka;nikolayevka,village,Q4320374,5,0,38.2474159,47.9982528,592697983758381304,71973
zuhres,zugres;zuhres,town,Q669778,5,0,38.2740527,48.0160913,592774597385033989,71973
slavne,slavne;slavnoe;slavnoye,village,Q4422968,5,0,38.3192318,48.2179969,593641777051945344,71973
zhovti vody,zhovti vody;zhyoltye vody,town,Q639054,,0,33.5129853,48.3614765,594258018954769177,101746
trostianets,trostianets;trostyanets,town,Q606706,3,0,34.9765478,50.4714712,603320374180988964,71250
lyman,krasny liman;krasnyi lyman;krasnyy liman;liman;lyman,town,Q2234641,4,0,37.8096824,48.9856927,596939006264705810,71973
zhdanivka,zhdanivka;zhdanovka,town,Q2354450,5,0,38.247537,48.1495135,593347640511574385,71973
kovske,kovske;kovskoe,village,Q4225861,5,0,38.2395443,47.2371462,589429054084616760,71973
kuznetsi,kuznetsi;kuznetsy,hamlet,Q4245190,5,0,38.3190465,47.2764169,589597721745377478,71973
samiilove,samiilove;samoylovo,village,Q4406779,5,0,38.247952,47.2562256,589511002060632848,71973
berestove,berestove;berestovoe;berestovoye,hamlet,Q4084806,5,0,38.332087,47.5872021,590932533156477879,71973
verbova balka,verbova balka;verbovaya balka,village,Q4107462,5,0,38.0820894,47.8340264,591992634164095785,71973
marhanets,marganets;marhanets,town,Q610813,1,0,34.6137714,47.6437322,591175327654002443,101746
prosyana,prosiana;prosyana;prosyanaya,town,Q3407833,5,0,36.3671972,48.1173983,593209707634983005,101746
shostka,shostka,town,Q1000454,3,0,33.4826949,51.8765511,609355146827758791,71250
hirske,gorskoe;hirske,town,Q1004740,4,0,38.4942952,48.7509475,595930784167490903,71971
zolote,zolote;zolotoe,town,Q582033,4,0,38.5184864,48.6927884,595680988869579734,71971
sokolohirsk,aleksandrovka;pervomaisk;pervomaysk;petro marevka;sokologorsk;sokolohirsk,town,Q1844446,4,0,38.5643412,48.6271028,595398873942787829,71971
konotop,conotopy;konotop,town,Q162083,3,0,33.2059646,51.235877,606603472950084557,71250
temriuk,temriuk;temryuk,village,Q4454570,5,0,37.9877585,47.8943428,592251693706394286,71973
novovorontsovka,novovorontsovka,town,Q2010524,2,0,33.9163714,47.4989077,590553313309629139,71022
kerch,kerch;pantikapey,city,Q157065,,0,36.4937563,45.3040221,581126349723758268,72639
voikovo,voikovo;voykovo,village,Q4122529,,0,36.4333693,45.3843924,581471536245277401,72639
alushta,alushta,town,Q46001,,0,34.3998482,44.6674507,578392298095082344,72639
kakhovka,kakhovka,town,Q995152,2,0,33.4886176,46.8078549,587585263274398698,71022
tavriisk,tavriisk;tavriysk,town,Q760227,2,0,33.4267309,46.7554037,587359987944694315,71022
chasiv yar,chasiv yar;chasov yar,town,Q2415330,4,0,37.8438073,48.5724189,595164007950452831,71973
debaltseve,debaltseve;debaltsevo,town,Q2371760,5,0,38.4246326,48.3417432,594173262075061561,71973
shakhtarske,shakhtarske;shakhterskoe;shakhterskoye;shakhtyorskoe,town,Q4521472,,0,39.5523503,48.0515384,592926841092053598,71971
dovzhansk,dolzhansk;dovzhansk;sverdlovsk,town,Q572366,,0,39.6587879,48.0581828,592955381149841956,71971
mykhailivka,mikhailovka;mikhaylovka;mykhailivka;mykhailovka;mykhaylivka;mykhaylovka,town,Q4297605,,0,39.2549356,48.065415,592986442352922776,71971
rovenky,rovenki;rovenky,town,Q1012631,,0,39.3488179,48.0699008,593005709576306514,71971
oleksiievo druzhkivka,alekseevo druzhkovka;oleksiievo druzhkivka;oleksiievo druzhkovka,town,Q4061852,4,0,37.6166815,48.5778689,595187415521988905,71973
druzhkivka,druzhkivka;druzhkovka,town,Q157795,4,0,37.533193,48.6260959,595394548909689608,71973
novohryhorivka,novo grigorovka;novogrigorovka;novohryhorivka;novohryhorovka,town,Q4323496,4,0,37.4241715,48.5759265,595179074695307563,71973
novomykolaivka,novomikolayivka;novomykolaivka;novomykolayivka;novonikolaevka;novonikolayevka,town,Q4324648,4,0,37.3617072,48.562266,595120401147014443,71973
raiske,raiske;rayskoe;rayskoye,town,Q4389195,4,0,37.4624929,48.579168,595192994684352221,71973
leonidivka,leonidivka;leonidovka,village,Q4258806,5,0,37.8024168,48.3703182,594295990764922545,71973
nelipivka,nelepovka;nelipivka;nelipovka,town,Q4316732,5,0,37.8319895,48.3570473,594238992253966901,71973
niu york,niu york;novgorodskoe;novhorodske;nyu york,town,Q4322522,5,0,37.8526634,48.3173138,594068340318415607,71973
shcherbynivka,shcherbinovka;shcherbynivka;shcherbynovka,town,Q4528953,5,0,37.7931055,48.4003059,594424788244185682,71973
yurivka,urevka;yurevka;yurivka;yurovka,hamlet,Q4535268,5,0,37.8321799,48.3140297,594054235645795060,71973
ukrainsk,ukrainsk,town,Q2496842,5,0,37.3627295,48.0980952,593126801882263850,71973
tsukuryne,tsukurino;tsukuryne,town,Q4506151,5,0,37.306586,48.0803425,593050557622769114,71973
ilovaisk,ilovaisk;ilovaysk,town,Q2415345,5,0,38.2003446,47.9252806,592384567109843225,71973
krolevets,krolevets,town,Q2235501,3,0,33.3805831,51.5513288,607958328973716967,71250
myrnohrad,dimitrov;dymytrov;mirnograd;mirnohrad;myrnograd;myrnohrad,town,Q45872,5,0,37.2691344,48.2967169,593979876876436366,71973
rodynske,rodinskoe;rodinskoye;rodynske,town,Q2416543,5,0,37.2123455,48.3561532,594235152552584633,71973
trubnyi,trubny;trubnyi;trubnyy,hamlet,Q4464249,4,0,38.7592277,48.1619853,593401207344201788,71971
fedorivka,fedorivka;fedorovka;fyodorovka,town,Q4494101,4,0,38.8502955,48.3176218,594069663169340408,71971
miusynsk,miusinsk;miusynsk,town,Q2415287,4,0,38.883957,48.0723582,593016262310487925,71971
sadovo khrustalnenskyi,sadovo khrustalnenskiy;sadovo khrustalnensky;sadovo khrustalnenskyi,village,Q4404693,4,0,38.7286359,48.1517894,593357415857621180,71971
shterivka,shterivka;shterovka,town,Q4526854,4,0,38.9488339,48.3172151,594067915117749474,71971
khrustalnyi,khrustalny;khrustalnyi;khrustalnyy;krasny luch;krasnyi luch;krasnyy luch;krindachyovka,town,Q612773,4,0,38.919968,48.1315997,593270704763073567,71971
khrustalne,khrustalne;khrustalnoe,town,Q4501862,4,0,38.8560054,48.1486975,593344135818869317,71971
khrustalnyi,khrustalny;khrustalnyi;khrustalnyy;krasny luch;krasnyi luch,village,Q4501864,4,0,38.8858319,48.177316,593467053487943368,71971
kamiane,kamennoe;kamennoye;kamenoye;kamiane;kamianoe;kamyanoye,town,Q4211181,,0,39.154965,48.1583868,593385754052266517,71971
melnykove,melnikovo;melnykove;melnykovo,hamlet,Q4289930,4,0,39.0334689,48.1548601,593370605702492029,71971
shchotove,shchotove;shchyotovo,town,Q4529344,,0,39.1073656,48.1731726,593449259438657574,71971
martynivka,martynivka;martynovka,village,Q4282835,3,0,34.7077726,50.4436431,603200853830807101,71250
ordzhonikidze,ordzhonikidze,town,Q1010485,,0,35.361884,44.9741051,579709366997231964,72639
kirovskoe,isliam terek;kirovskoe,town,Q2626751,,0,35.2041326,45.2334554,580823266765291813,72639
feodosia,feodosia;feodosiya,town,Q158491,,0,35.3693702,45.0500606,580035595533174426,72639
yalta,yalta,town,Q128499,,0,34.1517381,44.5020691,577681987813487162,72639
zaozernoe,zaozernoe;zaozyornoe;zaozyornoye,town,Q3889732,,0,33.2873374,45.1658441,580532879729525161,72639
lesnoe,lesnoe;suvuq suv,village,Q4259618,,0,34.9538713,44.9409738,579567066140372879,72639
simeiz,simeiz,town,Q514390,,0,34.0045559,44.4065635,577271792666768204,72639
gaspra,gaspra,town,Q206045,,0,34.1131634,44.4364711,577400242253798283,72639
parkovoe,parkovoe,town,Q3894361,,0,33.914005,44.4038966,577260342283866517,72639
massandra,massandra,town,Q206345,,0,34.1928035,44.5127922,577728042747843235,72639
morskoe,morskoe;qapıshor,village,Q4303312,,0,34.8017758,44.8304955,579092562448326000,72639
novyi svet,novy svet;novyi svet;novyy svet,town,Q388147,,0,34.9134485,44.8299641,579090286115770793,72639
koreiz,koreiz,town,Q206189,,0,34.0805182,44.4318042,577380201936362501,72639
kuprine,kuprine;kuprino,village,Q4247557,,0,34.0158066,45.1633426,580522138017046335,72639
aromat,aromat,village,Q3915159,,0,33.937819,44.5785617,578010522746646171,72639
bakhchysarai,bakhchisaray;bakhchysarai;bağçasaray,town,Q158604,,0,33.8740961,44.7512075,578752027375400368,72639
pochtovoye,pochtovoe;pochtovoye,town,Q3891473,,0,33.9486409,44.8365022,579118366610987233,72639
simferopol,simferopol,city,Q19566,,0,34.1139194,44.9475384,579595262599831167,72639
molodyozhnoe,molodizhne;molodyozhnoe;molodyozhnoye,town,Q2040011,,0,34.0664198,45.0003572,579822118477391092,72639
agrarnoye,agrarnoe;agrarnoye,town,Q2384269,,0,34.0521419,45.0138384,579880018931494190,72639
aeroflotsky,aeroflotskiy;aeroflotsky,town,Q2026780,,0,34.0015696,45.0192405,579903224639743906,72639
komsomolskoye,komsomolskoe;komsomolskoye,town,Q2046367,,0,34.025697,45.0190729,579902503085262305,72639
volnoye,volnoe;volnoye,town,Q2079708,,0,34.3028644,45.5675873,582258352776937616,72639
strogonovka,strogonovka,village,Q4444081,,0,34.180254,44.9464313,579590508071100830,72639
donske,donske;donskoe,village,Q4166375,,0,34.2218867,45.0412443,579997726805378111,72639
aromatnoe,aromatnoe,village,Q3920779,,0,34.3981968,45.0366856,579978150344619253,72639
kolchuhyne,kolchugino;kolchuhyne,village,Q4229033,,0,33.7852271,44.9432236,579576734110587531,72639
pozharske,pozharske;pozharskoe,village,Q4368688,,0,33.873425,44.9359082,579545307834970897,72639
kurortnoe,kurortne;kurortnoe;kurortnoye,town,Q2011775,,0,35.1774461,44.9118366,579441927973460198,72639
skvortsove,skvortsove;skvortsovo,village,Q4421780,,0,33.8192571,45.0763996,580148720675233657,72639
mirnyi,mirny;mirnyi;mirnyy,town,Q821951,,0,33.0393227,45.3230978,581208280516442331,72639
vorozhba,vorozhba,town,Q591794,3,0,34.2354742,51.1697309,606319378044352850,71250
kurpaty,kurpaty,town,Q3894275,,0,34.1320905,44.4441333,577433154588206458,72639
vinogradnoe,vinogradnoe;vinogradnoye;vynohradne,town,Q356001,,0,34.1218379,44.4864549,577614926194097518,72639
livadiya,livadiya,town,Q2287115,,0,34.1455753,44.4732333,577558138136533543,72639
shchebetovka,shchebetovka,town,Q3894352,,0,35.1603141,44.9375148,579552214143669754,72639
mirnoye,mirnoe;mirnoye,village,Q4295762,,0,34.0617542,44.9805001,579736833311789754,72639
putyvl,putivl;putyvl,town,Q1075057,3,0,33.8612799,51.3368394,607037101438878624,71250
oreanda,oreanda,town,Q3894036,,0,34.1370098,44.457065,577488697105283250,72639
khutir mykhailivskyi,druzhba;khutir mykhailivskyi;khutor mikhaylovskiy;khutor mikhaylovsky;mikhaylovskiy;mikhaylovsky,town,Q385857,3,0,33.9430057,52.0492581,610096917745009374,71250
synelnykove,sinelnikovo;synelnikovo;synelnykove,town,Q640798,5,0,35.5080648,48.3147419,594057293660185697,101746
volnovakha,volnovakha,town,Q3562943,5,0,37.4879552,47.6002204,590988445039893075,71973
krasnopillia,krasnopillia;krasnopillya;krasnopole;krasnopolie,town,Q2011646,3,0,35.2754303,50.7714214,604608649621723046,71250
izvaryne,izvarino;izvaryne,town,Q4198371,,0,39.8917963,48.2827129,593919730157045844,71971
koktebel,koktebel,town,Q1743602,,0,35.2432975,44.9655532,579672636436797984,72639
kharkiv,kharkiv;kharkov,city,Q42308,3,0,36.2805202,49.9916178,601259421240405448,71254
yurivka,malaya ternovka;urevka;yurevka;yurivka;yurovka,town,Q1001083,5,0,36.0182594,48.7388486,595878819355700563,101746
novohrodivka,novogrodovka;novohrodivka;novohrodovka,town,Q376473,5,0,37.3286368,48.2118854,593615526210841597,71973
bakhmut,artemivsk;artemovsk;artyomovsk;bakhmut,town,Q706857,4,0,38.0115337,48.600763,595285744503658381,71973
sofiivka,sofievka;sofiivka;sofiovka;sofiyivka,village,Q4429973,4,0,38.565836,48.3707826,594297987925478604,71971
maloivanivka,maloivanivka;maloivanovka,village,Q4278321,4,0,38.6372,48.3819,594345735076979600,71971
petropavlivka,petrivka;petropavlivka;petropavlovka;petrovka,town,Q4361064,,0,39.2644554,48.8015843,596148264132261319,71971
samar,novaya samara;novomoskovsk;novoselitsa;samar;samarchik,town,Q640680,5,0,35.2300005,48.6378352,595444967528474161,101746
pereshchepyne,pereshchepino;pereshchepyne,town,Q573621,5,0,35.3477277,49.0151064,597065334135321104,101746
kurylivka,kurilovka;kurylivka;kurylovka,town,Q3199342,,0,34.6032795,48.5723512,595163715889436175,101746
pidhorodnie,pidhorodne;pidhorodnie;podgorodnoe,town,Q639442,5,0,35.1122115,48.5763408,595180852809456148,101746
novohryhorivka,novo grigorovka;novogrigorovka;novohryhorivka;novohryhorovka,village,Q4323487,,0,34.2554222,48.5633138,595124902269634366,101746
shevchenkove,shevchenko;shevchenkove;shevchenkovo,town,Q1002607,4,0,37.1644404,49.6968,599993187573017240,71254
shyikivka,shiykovka;shyikivka;shyikovka,village,Q4523727,4,0,37.7518967,49.3514095,598509748819239257,71254
pechenihy,pechenegi;pechenihy,town,Q4361999,3,0,36.9341352,49.8643052,600712616069703415,71254
yurchenkove,yurchenkove;yurchenkovo,village,Q4535209,3,0,37.0858031,49.8299736,600565165547616107,71254
eskhar,eskhar,town,Q4119426,3,0,36.588175,49.7955941,600417504571481999,71254
kotivka,kotivka;kotovka,village,Q4236206,4,0,36.8429663,48.8061364,596167814820971222,71254
bohdanove,bogdanovo;bohdanove,village,Q4089386,4,0,36.8203206,48.8058617,596166637999909473,71254
novoukrainka,novo ukrainka;novoukrainka,village,Q4326042,3,0,35.4361435,50.2572746,602400409366514544,71254
vertiivka,vertievka;vertiivka;vertiovka,village,Q4108120,3,0,35.7732273,50.031271,601429729578086443,71254
palianychnyky,palianychnyky;palyanichniki,village,Q4342923,3,0,35.5830544,50.2016565,602161527580625230,71254
morozova dolyna,morozova dolina;morozova dolyna,village,Q4303049,3,0,35.7354831,50.3075571,602616368912391355,71254
zolochiv,zolochev;zolochiv,town,Q2010577,3,0,35.9820748,50.2845482,602517546010124283,71254
buhai druhi,bugai vtorye;buhai druhi,village,Q4097736,3,0,35.9765357,50.3257496,602694507252648536,71254
rozsokhuvate,rassokhovatoe;rozsokhovate;rozsokhovatoye;rozsokhuvate,village,Q4390471,3,0,35.957719,50.3262273,602696555952029911,71254
basove,basove;basovo,village,Q4079133,3,0,35.8911224,50.4055115,603037082434026674,71254
petrivka,petriivka;petrivka;petrovka;pyotrovka,village,Q4360998,3,0,35.903412,50.3279416,602703921820888244,71254
borokhy,borokhi;borokhy,village,Q4094710,3,0,35.9260451,50.3151409,602648937649587485,71254
lemishchyne,lemeshchino;lemishchyne,village,Q4257907,3,0,35.7212405,50.329864,602712176747848985,71254
fesky,feski;fesky,village,Q4483283,3,0,35.9518929,50.1433298,601911019318487572,71254
holovashivka,golovashevka;holovashivka;holovashovka,village,Q4141781,3,0,35.9651898,50.1155244,601791593457868294,71254
vysoke,vysoke;vysokoe;vysokoye;zhovtneve;zhovtnevoe,village,Q4180977,3,0,35.9823958,50.1705496,602027928328315196,71254
maiak,maiak;mayak,village,Q4286320,3,0,35.9511176,50.1602856,601983840488990478,71254
dovzhyk,dolzhik;dolzhyk;dovzhik;dovzhyk,village,Q4164838,3,0,35.9458391,50.2015703,602161158213800559,71254
berestyn,belyovskaya krepost;berestin;berestyn;kostantinograd;krasnograd;krasnohrad,town,Q1104739,,0,35.4463054,49.3663195,598573786779317025,71254
doslidne,doslidne;doslidnoe;doslidnoye,village,Q4167192,,0,35.4130943,49.3628713,598558969142112614,71254
natalyne,natalino;natalyne,village,Q4314110,,0,35.4799337,49.3431448,598474250912265854,71254
ulianivka,ulianivka;ulianovka;ulyanovka,village,Q4475118,,0,35.5066383,49.3610353,598551087877217998,71254
popivka,popivka;popovka,village,Q4372733,,0,35.535808,49.3625608,598557641997340864,71254
makhovyk,makhovik;makhovyk,village,Q4285806,,0,35.5472179,49.3873239,598663998272503122,71254
balky,balki;balky,village,Q4076685,,0,35.572365,49.366133,598572983620558733,71254
petrivka,petriivka;petrivka;petrovka;pyotrovka,village,Q4361012,,0,35.5948992,49.389758,598674452222949267,71254
peremoha,chervona peremoha;chervonaya peremoga;peremoga;peremoha,village,Q4512105,,0,35.3246582,49.333838,598434277651486706,71254
mykolaivka,mykolaevka;mykolaivka;mykolayivka;nikolaevka;nikolayevka,village,Q4320380,,0,35.9796518,49.258644,598111321881286276,71254
marivka,marevka;marivka;mariyevka;marovka;maryivka,village,Q4283413,,0,36.0508667,49.2155999,597926449309068466,71254
krasnyi kut,krasny kut;krasnyi kut;krasnyy kut,town,Q4239502,4,0,38.7626141,48.2125712,593618472559840629,71971
dvorichna,dvorichna;dvurechnaya,town,Q4156149,3,0,37.6738644,49.851157,600656145840435336,71254
starovirivka,staroverovka;starovirivka;starovirovka,village,Q4440130,,0,35.7235629,49.5396103,599318061662318123,71254
pryvokzalne,privokzalne;privokzalnoe;privokzalnoye;pryvokzalne,village,Q4377873,3,0,35.7607159,50.0010276,601299836882141004,71254
hazove,gazovoe;hazove,village,Q4131725,3,0,35.7494866,50.0091714,601334810800821103,71254
maidan,maidan;maydan,village,Q4274731,,0,35.260223,49.7131816,600063547725356095,71254
velykyi burluk,velikiy burluk;veliky burluk;velykyi burluk,town,Q1965817,3,0,37.3815095,50.0604239,601554940761275013,71254
vovchansk,volchansk;vovchansk,town,Q1104773,3,0,36.9453947,50.285122,602520011322315507,71254
vilcha,vilcha,town,Q4111378,3,0,36.9392515,50.2441618,602344089461865203,71254
derhachi,dergachi;derhachi,town,Q1106109,3,0,36.102513,50.1131682,601781474515056241,71254
zamirtsi,zamertsy;zamirtsi,village,Q4185695,3,0,36.0589602,50.1369791,601883741981297744,71254
mala danylivka,mala danylivka;malaya danilovka;malaya danylovka,town,Q4276832,3,0,36.1585939,50.0678121,601586671978434946,71254
slatyne,slatino;slatyne,town,Q4423206,3,0,36.1586418,50.2137534,602213483800580530,71254
dementiivka,dementievka;dementiivka;dementiovka,village,Q4157390,3,0,36.2375929,50.2307918,602286665748416025,71254
trudoliubivka,trudoliubivka;trudoliubovka;trudolyubivka;trudolyubovka,village,Q4464419,3,0,35.2400146,49.8995915,600864168284015951,71254
pidlisne,pidlesnoe;pidlesnoye;pidlisne;podlesnoe,village,Q4367742,3,0,35.2376141,49.8791397,600776331907843054,71254
buzova,buzova;buzovaya;komsomolske;komsomolskoe,village,Q4230274,3,0,35.2377579,49.9638903,601140330386179198,71254
orlianka,orlianka;orlyanka,village,Q4336960,4,0,37.9285929,49.6865425,599949134094226321,71254
pivdenne,pivdenne;pivdennoe;pivdennoye;pivdenny;yuzhnoe;yuzhnoye;yuzhny;yuzhnyy,town,Q785296,3,0,36.0740062,49.873922,600753920769328918,71254
rai olenivka,rai olenivka;rai olenovka;ray elenovka;ray olenovka;ray yelenovka,village,Q7214776,3,0,36.0707665,49.9390912,601033819493038702,71254
merefa,merefa,town,Q1019408,3,0,36.0508489,49.8119405,600487710106365089,71254
movchany,molchany;movchany,village,Q4301192,3,0,36.2991921,49.9197816,600950887969748664,71254
lyptsi,liptsy;lyptsi,village,Q4262947,3,0,36.4224348,50.2083186,602190144948557859,71254
balakliya,balakleya;balakliia;balakliya,town,Q986263,4,0,36.8544308,49.4604564,598978097822101407,71254
prolisne,balitskogo;chkalovske;chkalovskoe;nezhurilovka;prolesnoe;prolisne,town,Q4516908,4,0,36.9321157,49.7142285,600068040262819604,71254
hrodivka,grodovka;hrodivka;hrodovka,town,Q4150058,5,0,37.3803516,48.2614604,593828449214592512,71973
novoozernoe,novoozernoe;novoozyornoe;novoozyornoye,town,Q3889296,,0,33.1277061,45.3882437,581488080455995930,72639
ivanivske,ivanivske;ivanovka;ivanovske;ivanovskoe;ivanovskoye;krasne;krasnoe,village,Q4238577,4,0,37.9204151,48.5725786,595164695145296799,71973
krasnopolivka,krasnopolevka;krasnopolivka;krasnopolovka,hamlet,Q4238926,4,0,38.0481936,48.7311775,595845872663602882,71973
siversk,seversk;siversk,town,Q1940853,4,0,38.0955248,48.8616364,596406185507151781,71973
bilohorivka,belogorovka;bilohorivka;bilohorovka,village,Q4082330,4,0,38.215425,48.732945,595853461870982145,71973
ivanhrad,ivangrad;ivanhrad,village,Q4195693,4,0,38.0261469,48.5571736,595098531174207651,71973
opytne,opitne;opytne;opytnoe,village,Q4335579,4,0,38.0208461,48.5538947,595084447976438766,71973
olenivka,elenovka;olenivka;olenovka;yelenovka,village,Q4333612,5,0,37.6600846,47.8304487,591977271065655989,71973
bilokuzmynivka,belokuzminovka;bilokuzmynivka;bilokuzmynovka,village,Q4082560,4,0,37.673747,48.6557782,595522032129110035,71973
ivanopillia,ivanopillia;ivanopole;ivanopolye,village,Q4196804,4,0,37.7754359,48.4718757,594732179053542732,71973
illinivka,ilinka;illicha;illinivka;illinovka,village,Q4199812,4,0,37.6663814,48.4940362,594827355528713037,71973
oleksandrivka,aleksandrovka;oleksandrivka;oleksandrovka,town,Q4061193,4,0,36.913089,48.7104056,595756657601795265,71973
sosnove,sosnove;sosnovoe,village,Q4429660,4,0,37.5496488,49.072913,597313613312002897,71973
dibrivka,dibrivka;dibrovka;dibrovke,village,Q4161164,5,0,39.038975,47.90468,592296086489416959,71973
zemlianky,zemlianky;zemlyanka;zemlyanki;zemlyanky,village,Q4191177,5,0,37.9139381,48.1317738,593271452086377042,71973
yasynivka,yasinovka;yasynivka;yasynovka,village,Q4539260,5,0,37.9484231,48.1341327,593281583914262791,71973
mineralne,mineralne;mineralnoe,village,Q4294151,5,0,37.8358851,48.1006703,593137861423524205,71973
yakovlivka,yakovlevka;yakovlivka;yakovlovka,village,Q4537000,5,0,37.8244946,48.0883793,593085071980477679,71973
lebedyn,lebedin;lebedyn,town,Q476688,3,0,34.4843545,50.5757671,603768317794633091,71250
okhtyrka,akhtyrka;okhtyrka,town,Q1013471,3,0,34.9087709,50.3128536,602639119353331555,71250
lokhivka,lokhivka;lokhovka,village,Q4267552,,0,34.8794574,45.2185303,580759164378074337,72639
krasnohvardiiske,krasnogvardeyskoe;krasnohvardiiske,village,Q4238433,,0,34.9468818,45.1812465,580599030817477698,72639
kupiansk,kupiansk;kupyansk,town,Q889555,4,2,37.6126395,49.7100019,600049889731707232,71254
hola prystan,golaya pristan;hola prystan,town,Q760224,2,0,32.5354931,46.525685,586373352351533253,71022
foros,foros,town,Q1437932,,0,33.7793376,44.3915015,577207101869130634,72639
nikita,nikita,town,Q2368326,,0,34.2362232,44.5162856,577743049363618879,72639
partenit,partenit,town,Q1401243,,0,34.3418116,44.5784089,578009865617053876,72639
malyi mayak,maly mayak;malyi mayak;malyy mayak,village,Q3849361,,0,34.3596782,44.6143488,578164226741689982,72639
krasnokamenka,krasnokamenka,village,Q4238776,,0,35.0858579,44.9264033,579504488467002146,72639
perevalovka,elbuzly;perevalovka,village,Q4349987,,0,34.9818724,44.977835,579725387224866032,72639
blizhnee,blizhnee,village,Q3920624,,0,35.3328744,45.0565885,580063628784678922,72639
solnechnoe,solnechnoe,village,Q4427804,,0,35.3431326,45.0446139,580012200846286877,72639
novyi sad,novy sad;novyi sad;novyy sad,village,Q4326771,,0,33.9990423,45.1475818,580454445037477314,72639
shtormove,shtormove;shtormovoe,village,Q4526937,,0,33.0942072,45.2657327,580961899717562174,72639
popovka,popovka,village,Q988465,,0,33.0305506,45.3000902,581109461908887191,72639
dzhankoy,dzhankoi;dzhankoy,town,Q161978,,0,34.3994251,45.7111669,582875024181393857,72639
saky,saki;saky,town,Q161970,,0,33.5689944,45.1227072,580347607725559266,72639
ternivka,ternivka;ternovka,town,Q574421,5,0,36.0804387,48.520268,594940021109235767,101746
shakhtarske,pershotravensk;shakhtarske;shakhterskoe;shakhterskoye;shakhtyorskoe,town,Q604607,5,0,36.4041694,48.346451,594193482779070665,101746
krasnoperekopsk,krasnoperekopsk,town,Q161987,,0,33.8179305,45.9567395,583929747889625675,72639
gvardeyskoye,gvardeyskoe;gvardeyskoye;hvardiiske,town,Q2394414,,0,34.0190614,45.1149398,580314248715021301,72639
sukhodilsk,sukhodilsk;sukhodolsk,town,Q2354470,,0,39.7288625,48.3520926,594217714987879390,71971
irmino,irmino;petrovka;teplogorsk,town,Q2414508,4,0,38.589276,48.589681,595238143381694555,71971
lutuhyne,lutugino;lutuhyne,town,Q2415989,,0,39.2094626,48.3983772,594416503253688055,71971
novooleksiivka,novoalekseevka;novooleksiivka;novooleksiovka,town,Q2028833,2,0,34.6418921,46.2257764,585085253006863587,71022
svatove,svatove;svatovo,town,Q2414524,4,0,38.162035,49.409295,598758363001578355,71971
oleksandrivsk,aleksandrovsk;oleksandrivsk,town,Q1945882,,0,39.1975075,48.5766962,595182377526931524,71971
uhlove,uglovoe;uglovoye;uhlove,village,Q4468971,,0,33.6002675,44.8202008,579048354348746764,72639
kosivshchyna,kosivshchyna;kosovshchina,village,Q4235132,3,0,34.7301148,50.9115685,605210580697777539,71250
liubotyn,liubotyn;lyubotin,town,Q889542,3,0,35.9297123,49.9462049,601064373890241392,71254
lysychansk,lisichansk;lusychansk;lysychansk,city,Q33280,4,0,38.4164229,48.899432,596568518091392295,71971
almazna,almazna;almaznaya,town,Q2234586,4,0,38.5734398,48.5213954,594944857244904064,71971
sumy,sumy,city,Q156752,3,0,34.8045678,50.9003227,605162279495641176,71250
novodruzhesk,novodruzhesk;novodruzhyesk,town,Q2415316,4,0,38.347873,48.9692474,596868371233093985,71971
stary krym,stary krym;staryi krym;staryy krym,town,Q576937,,0,35.0890807,45.033455,579964273305976761,72639
izyumovka,izjumivka;izyumovka,village,Q4198904,,0,35.1378195,45.0451412,580014464293846555,72639
pervomaiske,pervomaiske;pervomayskoe,village,Q4349495,,0,35.1629336,45.0636499,580093959843553334,72639
krynychky,krinichki;krynichki;krynichky;krynychki;krynychky,village,Q4241094,,0,35.1050443,45.0719122,580129444863294996,72639
stepove,stepnoe;stepove;stepovoe;stepovoye,hamlet,Q4442113,,0,35.3796311,45.0913331,580212857423425199,72639
nasypnoe,nasypnoe,village,Q4314078,,0,35.2944022,45.0469904,580022405688533442,72639
nanikovo,nanikovo,village,Q4312848,,0,35.2198573,45.0013861,579826537999892113,72639
vinogradnoe,vinogradnoe;vinogradnoye;vynohradne,village,Q3920782,,0,35.3166378,45.027616,579939194992162974,72639
podgornoe,podgornoe,village,Q4367376,,0,35.2766232,45.013372,579878017477958735,72639
yuzhnoe,yuzhnoe,village,Q4534034,,0,35.2899504,44.9983989,579813708932649054,72639
pionerskoe,pionerskoe,hamlet,Q4363174,,0,35.3329457,45.0241396,579924265685858386,72639
abrikosovka,abrikosovka,village,Q3921005,,0,35.0996756,45.1087472,580287649983637788,72639
aivazovskoye,aivazovskoye;ayvazovskoe,village,Q3920801,,0,35.0794449,45.1097395,580291914886142485,72639
pryvitne,privetnoe;pryvitne,village,Q4377812,,0,35.0610689,45.1160541,580319033309631053,72639
spasovka,spasovka,village,Q4430856,,0,35.1080685,45.1378797,580412775265880549,72639
ponizovka,ponizovka,town,Q3891445,,0,33.9447069,44.39796,577234843063060867,72639
beloglinka,beloglinka,village,Q3920915,,0,34.0345147,45.000704,579823604536043603,72639
horlivka,gorlovka;horlivka;horlovka,city,Q157260,5,0,38.0792894,48.3067428,594022933924388921,71973
krasnohorivka,krasnogorovka;krasnohorivka;krasnohorovka,town,Q2415374,5,0,37.4894129,48.006494,592733378583109637,71973
marinka,marinka,town,Q2494365,5,0,37.5122399,47.944324,592466360466340144,71973
staromykhailivka,staromikhaylovka;staromykhailivka;staromykhailovka,town,Q4440489,5,0,37.5827628,47.9947607,592682981436951723,71973
oleksandrivka,aleksandrovka;oleksandrivka;oleksandrovka,town,Q4061278,5,0,37.5815375,47.921322,592367567628666850,71973
halytsynivka,galitsynovka;halytsynivka;halytsynovka,village,Q4132554,5,0,37.4425629,48.098462,593128373840374019,71973
kurakhove,kurakhove;kurakhovo,town,Q1023513,5,0,37.277053,47.997848,592696244295656061,71973
pavlivka,pavlivka;pavlovka;pavlyivka,village,Q4341661,5,0,37.2175319,47.7560923,591657910181984764,71973
rozdolne,razdolnoe;razdolnoye;rozdolne,village,Q4388474,5,0,36.9169909,47.9038925,592292702053065727,71973
vynohradne,vinogradnoe;vinogradnoye;vynohradne,suburb,Q4111684,5,0,37.6870387,47.0914717,588803389018186751,71973
prymorske,primorskoe;primorskoye;prymorske,suburb,Q4378745,5,0,37.69847,47.0844563,588773255527649446,71973
novoazovsk,novoazovsk,town,Q2353526,5,0,38.0817541,47.1145528,588902521158740442,71973
melekine,melekine;melekino,village,Q4289319,5,0,37.3907609,46.9530549,588208892529680041,71973
manhush,mangush;manhush;pershotravnevoe,town,Q4280256,5,0,37.3119047,47.0519334,588633570305895073,71973
hirnyk,gornyak;hirnyk,town,Q2621513,5,0,37.3692565,48.0527895,592932218388925096,71973
kurakhivka,kurakhivka;kurakhovka,town,Q4247821,5,0,37.3756546,48.0262754,592818337331078055,71973
mykhailivka,mikhailovka;mikhaylovka;mykhailivka;mykhailovka;mykhaylivka;mykhaylovka,village,Q4297569,5,0,37.3581537,48.1447001,593326968833089354,71973
yenakiieve,enakievo;yenakievo;yenakiieve;yenakiyevo,town,Q1686835,5,0,38.2093127,48.2331468,593706845806369825,71973
sieverne,severnoe;sieverne,town,Q4412161,5,0,38.694734,48.0881501,593084084138869837,71973
vuhlehirsk,uglegorsk;vuhlehirsk,town,Q1025478,5,0,38.2813158,48.3123241,594046908432037220,71973
promin,promin,village,Q4380627,5,0,37.317709,48.2695679,593863272809365837,71973
sukhyi yar,sukhoy yar;sukhyi yar,village,Q4447295,5,0,37.2788148,48.2370573,593723639127566687,71973
andriivka,andreevka;andreyevka;andriivka;andriovka,village,Q4065622,5,0,38.0892243,47.6583911,591238287583069960,71973
kalmiouske,kalmiouske;kalmiusskoe;karakubstroy;komsomolskoe,town,Q1025487,5,0,38.0723555,47.6586836,591239546008470820,71973
metalist,metalist;metallist,village,Q4291536,5,0,38.2943449,47.82386,591948971526776905,71973
laryne,larino;laryne,town,Q4254546,5,0,37.9261573,47.8920341,592241776626846221,71973
krynychna,krinichnaya;krynychna,town,Q4241112,5,0,38.0279659,48.1237594,593237027923613630,71973
kramatorsk,kramatorsk,city,Q33613,4,0,37.5476605,48.7272838,595829148060451724,71973
pavlohradske,pavlogradskoe;pavlohradske,village,Q4341862,5,0,37.9418561,47.8672908,592135506251056992,71973
horbachevo mykhailivka,gorbachyovo mikhaylovka;horbachevo mikhaylovka;horbachevo mykhailivka,town,Q4143610,5,0,38.0103451,47.8478089,592051827403297513,71973
byriuky,biryuki;byriuky,village,Q4087096,5,0,38.0831887,47.8626979,592115779466407797,71973
hryshky,grishki;hryshky,village,Q4149937,5,0,37.992448,47.8777822,592180564753009920,71973
soledar,bryantsevka;karlo libknekhtovo;karlo libknekhtovsk;soledar,town,Q2399843,4,0,38.0779515,48.6958436,595694114289195774,71973
shevchenko,shevchenko;shevchenkove;shevchenkovo,town,Q4522130,5,0,37.1465924,48.2209016,593654253930767584,71973
yurivka,urevka;vorovske;vorovskoe;yurevka;yurivka;yurovka,village,Q4125300,5,0,37.1884413,48.1429482,593319444050217049,71973
hryhorivka,grigorovka;grigoryevka;hryhorivka;hryhorovka;hryhoryvka;leninske;leninskoe,village,Q4258435,5,0,37.2288241,48.1621044,593401718443779608,71973
novooleksiivka,novoalekseevka;novooleksiivka;novooleksiovka,village,Q4323099,5,0,37.2083177,48.1330837,593277078492829182,71973
petrivka,petriivka;petrivka;petrovka;pyotrovka,village,Q4361009,5,0,37.2060436,48.1688352,593430627868626204,71973
pustynka,pustynka,village,Q4384109,5,0,37.1784228,48.1594092,593390139211899191,71973
dachenske,dachenske;dachenskoe,village,Q4155414,5,0,37.2199618,48.2134271,593622149050303354,71973
zelene,zelene;zelenoye;zelyonoe,village,Q4190711,5,0,37.1940229,48.2156123,593631533553819175,71973
lysivka,lysivka;lysovka,village,Q4270717,5,0,37.2568808,48.219644,593648850862019505,71973
novopavlivka,novopavlivka;novopavlovka,village,Q4324826,5,0,37.2193299,48.2512995,593784812346704130,71973
novoukrainka,novo ukrainka;novoukrainka,hamlet,Q4326054,5,0,37.1975313,48.2283043,593686045278743515,71973
chunyshyne,chunishino;chunyshyne,village,Q4518087,5,0,37.2006969,48.2327305,593705059098966073,71973
mykhailivka,mikhailovka;mikhaylovka;mykhailivka;mykhailovka;mykhaylivka;mykhaylovka,village,Q4297591,5,0,37.3680258,48.2985181,593987612112635354,71973
mykolaivka,mykolaevka;mykolaivka;mykolayivka;nikolaevka;nikolayevka,village,Q2752636,5,0,37.3455936,48.3213357,594085614676373050,71973
novoekonomichne,novoekonomicheskoe;novoekonomichne,town,Q4326267,5,0,37.3255875,48.3291281,594119081061523474,71973
vesele,vesele;veseloe;veseloye;veselye;vesyoloe,village,Q4109799,5,0,37.4391114,48.2373961,593725095121640327,71973
serhiivka,sergeevka;sergeyevka;sergiyivka;serhiivka;serhiovka,village,Q4416890,5,0,37.4150054,48.2205977,593652948260978013,71973
vyshneve,vishnyovoe;vyshneve;vyshnevoe;vyshnyove;vyshnyovoye,town,Q4112863,5,0,37.246929,48.1500501,593349946908011729,71973
zavitne,zavetnoe;zavitne,village,Q4182999,5,0,37.430554,48.1781306,593470553884834330,71973
memryk,memrik;memryk,village,Q4290267,5,0,37.3974369,48.1241113,593238539751471293,71973
orlivka,orlivka;orlovka,village,Q4336784,5,0,37.3783108,48.2107695,593610733027388935,71973
zhuravka,zhuravka,village,Q4181681,5,0,37.3637153,48.2284083,593686491955508483,71973
krasnyi yar,krasny yar;krasnyi yar;krasnyy yar,village,Q4239652,5,0,37.3383596,48.2420022,593744877740904952,71973
krutyi yar,krutoy yar;krutyi yar,village,Q4242507,5,0,37.3371182,48.2324773,593703968177409310,71973
mykolaivka,mykolaevka;mykolaivka;mykolayivka;nikolaevka;nikolayevka,village,Q4320262,5,0,37.3262083,48.2497329,593778082133058176,71973
vodiane,vodiane;vodianoe;vodyane;vodyanoe;vodyanoye,village,Q4114244,5,0,37.665983,48.0968544,593121471828152766,71973
maiak,maiak;mayak,village,Q4286328,5,0,38.0220435,47.9680859,592568417479737500,71973
lypske,krasny oktyabr;krasnyy oktyabr;lipskoe;lypske,village,Q4239549,5,0,38.1473036,48.0817399,593056557692922344,71973
nyzhnia krynka,nizhnyaya krynka;nyzhnia krynka,town,Q4319319,5,0,38.1783207,48.1180375,593212452120896272,71973
pervomaiske,pervomaiske;pervomayskoe,town,Q4349516,5,0,38.7879724,47.9940961,592680129579872388,71973
latysheve,latysheve;latyshevo,village,Q4255079,5,0,38.8623748,47.9590108,592529440652366631,71973
andriivka,andreevka;andreyevka;andriivka;andriovka,town,Q4065645,5,0,38.7315736,48.1098535,593177302109099062,71973
pervomaiskyi,pervomaiskyi;pervomayskiy;pervomaysky,town,Q4349342,5,0,38.7869884,47.971485,592583016074341548,71973
oleksandrivske,aleksandrovskoe;oleksandrivske;oleksandrovskoye,town,Q2687231,5,0,38.2841398,48.2742445,593883360372375660,71973
olenivka,olenivka;olenovka,village,Q4333615,5,0,38.2638288,48.2613511,593827981064040725,71973
vodobud,vodobud,village,Q4114047,5,0,38.2183585,48.0238456,592807904856358775,71973
zuivka,zuevka;zuivka,town,Q4194599,5,0,38.2522408,48.0635985,592978638396343249,71973
tsupky,tsupki;tsupky,village,Q4506174,5,0,38.3447017,48.0055115,592729156631112957,71973
avdiivka,avdeevka;avdiivka;avdiovka,town,Q791673,5,0,37.7465901,48.1437304,593322802715200670,71973
khromove,artemivske;artyomovskoe;khromove;khromovo,village,Q4070460,4,0,37.9501886,48.5990598,595278430174291949,71973
krasna hora,krasna hora;krasnaya gora,town,Q4237920,4,0,38.0200588,48.6605319,595542450403981531,71973
bilytske,belitskoe;belitskoye;bilytske,town,Q2354480,5,0,37.1841905,48.4084154,594459616133380030,71973
bilozerske,belozyorskoe;bilozerske,town,Q2351983,4,0,37.0573006,48.5369496,595011669754644501,71973
dobropillia,dobropillia;dobropole,town,Q2415973,4,0,37.0812877,48.4699354,594723842521327048,71973
svitlodarsk,svetlodarsk;svitlodarsk,town,Q2493295,4,0,38.2210934,48.4336515,594568008224066085,71973
kostiantynivka,konstantinovka;kostiantynivka;kostiantynovka,city,Q165243,4,0,37.711568,48.5303988,594983533424542672,71973
oleksandrivka,aleksandrovka;oleksandrivka;oleksandrovka,town,Q4061255,4,0,37.4739403,48.7452439,595906285673014164,71973
stavky,stavki;stavky,village,Q4438946,4,0,37.8246418,49.0461051,597198473829006721,71973
sloviansk,slaviansk;slavyansk;sloviansk,city,Q33581,4,0,37.6140837,48.8505915,596358751887853316,71973
vuhledar,ugledar;vuhledar,town,Q2416423,5,0,37.2556777,47.777414,591749487474708222,71973
yasynuvata,yasinovataya;yasynuvata,town,Q1020077,5,0,37.8540991,48.1302739,593265009635373203,71973
biloiarivka,beloyarovka;biloiarivka;biloiarovka,village,Q4082955,5,0,38.6017339,47.7971262,591834149871393030,71973
artemivka,artemivka;artemovka;artyomovka,village,Q842979,5,0,38.63714,47.8743736,592165927505109844,71973
blahodatne,blagodatne;blagodatnoe;blagodatnoye;blahodatne,village,Q4087834,5,0,38.4830943,47.8744915,592166430016129430,71973
velyke mishkove,velikoe meshkovo;velyke mishkove,village,Q4106689,5,0,38.5590711,47.8738088,592163500848509535,71973
karpovo nadezhdynka,karpovo nadezhdinka;karpovo nadezhdynka,village,Q4215902,5,0,38.5787946,47.8251845,591954658063761259,71973
rodnyky,rodniki;rodnyky,village,Q4395918,5,0,38.4187432,47.8365735,592003573446135351,71973
vasylivka,vasilevka;vasilievka;vasilivka;vasilovka;vasylivka;vasylovka,village,Q4104210,5,0,38.5145936,47.6726278,591299435032888482,71973
mokroielanchyk,mokroelanchik;mokroielanchyk,village,Q4300099,5,0,38.5013654,47.7009261,591420974017417461,71973
yelyzaveto mykolaivka,elizaveto nikolaevka;yelizaveto nikolaevka;yelyzaveto mykolaivka;yelyzaveto nikolayevka,village,Q4174822,5,0,38.34932,47.825805,591957325238222600,71973
mnohopillia,mnogopole;mnohopillia,village,Q4298894,5,0,38.2223154,47.85655,592089374007611115,71973
obrizne,obreznoe;obrizne,village,Q4329863,5,0,38.2862813,47.7064832,591444841150466249,71973
rusko orlivka,rusko orlivka;rusko orlovka;russko orlovka,village,Q4400923,5,0,38.3748447,47.9491936,592487276957934269,71973
zelene,zelene;zelenoye;zelyonoe,village,Q4190683,5,0,38.1722724,47.9453859,592470917427301232,71973
dmytrivka,dmitrivka;dmitriyevka;dmitrovka;dmytrivka;dmytrovka,village,Q4162983,5,0,38.9369793,47.9360231,592430707944240787,71973
kozhevnia,kozhevnia;kozhevnya;kozhyevnya,village,Q4226315,5,0,38.9257232,47.8793678,592187376572074651,71973
marynivka,marinovka;marynivka;marynovka,village,Q4281528,5,0,38.8408843,47.9057634,592300742233767732,71973
saurivka,saurivka;saurovka,village,Q4409154,5,0,38.7539185,47.9059785,592301669946616702,71973
stepanivka,stepanivka;stepanovka,village,Q4441940,5,0,38.8058257,47.9229136,592374405217826370,71973
ocheretyne,ocheretino;ocheretyne,town,Q4340682,5,0,37.6123265,48.2443624,593755013863997479,71973
katerynivka,katerinovka;katerynivka;katerynovka,village,Q4217327,5,0,37.7566716,48.417671,594499366056276992,71973
kleban byk,kleban byk,village,Q4223138,4,0,37.7650659,48.4273897,594541113138402506,71973
raiske,raiske;rayskoe;rayskoye,village,Q4389200,4,0,37.4809723,48.562846,595122892228165388,71973
pidhirne,pidhirne;podgornoe,village,Q4367349,5,0,38.0660446,47.6842992,591349561595751549,71973
donske,donske;donskoe,town,Q4166372,5,0,37.5380546,47.5164164,590628509600669191,71973
novotroitske,novotroitske;novotroitskoe;novotroitskoye,town,Q4325992,5,0,37.5760777,47.7144102,591478887355511438,71973
oleksandrivka,aleksandrovka;oleksandrivka;oleksandrovka,village,Q4061261,4,0,37.590405,49.115585,597496888156498565,71973
myrne,mirne;mirnoe;mirnoye;myrne,hamlet,Q4160829,4,0,37.9274455,49.0691346,597297386925936405,71973
drobysheve,drobysheve;drobyshevo,town,Q4168310,4,0,37.724135,49.041765,597179833670841575,71973
zelena dolyna,zelena dolyna;zelyonaya dolina,village,Q4190592,4,0,37.8081248,49.1325381,597569700737285373,71973
zarichne,kirovo;kirovsk;popovka;zarechnoe;zarichne,town,Q4221602,4,0,37.9184092,49.0200343,597086499736726473,71973
lypove,lipovoe;lipovoye;lypove,village,Q4262822,4,0,37.820291,49.1604144,597689427245640835,71973
nove,nove;novoe;novoye,village,Q4323699,4,0,37.837434,49.1614606,597693924076416890,71973
novoselivka,novoselivka;novoselovka;novosyolovka,town,Q4325835,4,0,37.69426,49.070345,597302583836131380,71973
ridkodub,redkodub;ridkodub,village,Q4392185,4,0,37.797005,49.18665,597802110007595405,71973
terny,terny,village,Q4456104,4,0,37.9616372,49.0959443,597412530704209061,71973
torske,torske;torskoe,village,Q4461330,4,0,37.9646784,49.0108221,597046934498041990,71973
shandryholove,shandrigolovo;shandryholove,village,Q4520043,4,0,37.723367,49.0909189,597390948493308391,71973
yampil,yampil;yampol,town,Q4537719,4,0,37.9616026,48.9316987,596707103800677507,71973
yarova,yarova;yarovaya,town,Q4538692,4,0,37.6283459,49.0538444,597231712580714170,71973
oleksiivka,alekseevka;alekseyevka;olekseyevka;oleksiivka;oleksiovka;oleksivka;oleksiyivka,village,Q4061782,5,0,36.9519805,48.0219598,592799804546772140,71973
andriivka,andreevka;andreyevka;andriivka;andriovka,village,Q4065588,5,0,37.0568,48.0216291,592798382912701984,71973
bahatyr,bahatyr;bogatyr,village,Q4089091,5,0,36.9398852,47.9932205,592676367186673005,71973
vremivka,vremevka;vremivka;vremovka,village,Q4127070,5,0,36.8165752,47.8348189,591996040071895999,71973
komar,komar,village,Q4229225,5,0,36.7522936,47.9804078,592621340065489062,71973
kostiantynopil,konstantinopol;kostiantynopil,village,Q4231477,5,0,37.0374,47.998495,592699023139256920,71973
neskuchne,neskuchne;neskuchnoe,village,Q4317668,5,0,36.8121285,47.8194932,591930215403113057,71973
staromlynivka,staromlynivka;staromlynovka,village,Q4440495,5,0,36.8347281,47.6958518,591399181351690919,71973
ulakly,ulakly,village,Q4470814,5,0,37.087189,47.995344,592685489697357013,71973
urozhaine,urozhaine;urozhaynoe,village,Q4477199,5,0,36.8183634,47.7530509,591644849186038459,71973
shevchenko,shevchenko;shevchenkove;shevchenkovo,village,Q4522179,5,0,37.1526235,48.0175141,592780709122374767,71973
bilosaraiska kosa,belosarayskaya kosa;bilosaraiska kosa,village,Q4082789,5,0,37.331564,46.9017961,587988736800995180,71973
klynkyne,klinkino;klynkyne,village,Q4223890,5,0,38.246115,47.2936567,589671766981487587,71973
kotliarevske,kotliarevske;kotlyarevskoe,hamlet,Q4236126,5,0,38.2897461,47.4605605,590388609908135506,71973
orlovske,orlovske;orlovskoe,village,Q4336915,5,0,37.744746,47.2607595,589530471146882410,71973
pionerske,pionerske;pionerskoe,suburb,Q4363165,5,0,37.7331413,47.0917271,588804484234893333,71973
khomutove,khomutove;khomutovo,village,Q4499675,5,0,38.1396443,47.2554207,589507544611851260,71973
shcherbak,shcherbak,village,Q4528786,5,0,38.2005697,47.2172443,589343575645452794,71973
butkevych,butkevich;butkevych,village,Q4100227,4,0,38.8685667,48.3148145,594057602901191510,71971
chornomorskoe,chernomorskoe;chornomorskoe,town,Q1555482,,0,32.6811539,45.5060478,581994044782887362,72639
sievero hundorivskyi,severo gundorovskiy;severo gundorovsky;sievero hundorivskyi,town,Q4412453,,0,39.881522,48.3708286,594298185495289906,71971
siverskodonetsk,liskhimstroy;severodonetsk;severskodonetsk;sievierodonetsk;siverskodonetsk,city,Q160584,4,0,38.4723134,48.9432323,596756637659012985,71971
bobrove,bobrove;bobrovo,village,Q3641435,4,0,38.6442064,48.8055472,596165285087035118,71971
oknyne,oknino;oknyne,village,Q4332577,4,0,38.872805,48.9297496,596698732910328805,71971
sorokyne,krasnodon;sorokino;sorokyne,town,Q158053,,0,39.7475781,48.3033615,594008416936596730,71971
verkhnia syrovatka,verkhnia syrovatka;verkhnyaya syrovatka,village,Q4108976,3,0,34.9497095,50.8290705,604856254486011724,71250
petrivka,petriivka;petrivka;petrovka;pyotrovka,village,Q4361074,2,0,32.6328916,46.8299324,587680083266536764,71022
zelenivka,zelenivka;zelenovka,town,Q675946,2,0,32.641252,46.7149967,587186436905412068,71022
metolkine,metolkine;metyolkino,town,Q4292043,4,0,38.5545497,48.9285964,596693776517750966,71971
naddniprianske,naddnepryanskoe;naddniprianske,village,Q3622862,2,0,32.7062303,46.7374519,587282884691076022,71022
inzhenerne,inzhenerne;inzhenernoe;inzhyenernoe;zhovtneve,village,Q4180968,2,0,32.6897837,46.7048882,587143019081065336,71022
molodizhne,molodizhne;molodyozhnoe,village,Q4300778,2,0,32.6900773,46.7310906,587255564404090013,71022
pryseimivia,priseymove;pryseimivia,village,Q4379099,3,0,33.2104229,51.3820475,607231268319745335,71250
aidar,aidar;aydar;novo pskov;novopskov;zakamenka,town,Q4325077,,0,39.1275589,49.5308453,599280416277372679,71971
markivka,markivka;markovka,town,Q915662,,0,39.5555,49.52525,599256385935779500,71971
lisna dacha,lesnaya dacha;lisna dacha,village,Q4259485,4,0,38.4879678,48.9237797,596673091955186848,71971
syrotyne,sirotino;syrotyne,town,Q4420826,4,0,38.5159639,48.9153585,596636924035615228,71971
muratove,muratove;muratovo,village,Q4307881,4,0,38.736165,48.802815,596153551236474405,71971
staryi aidar,stary aidar;stary aydar;staryi aidar;staryy aydar,village,Q4441004,,0,39.1535267,48.7281538,595832884683605111,71971
vesela hora,vesela hora;vesyolaya gora,village,Q4109714,,0,39.2636534,48.7115046,595761377773204133,71971
makarove,makarove;makarovo,village,Q4275469,,0,39.5148863,48.6785213,595619712572164102,71971
yurivka,shcheglovka;urevka;yurevka;yurivka;yurovka,town,Q4535272,4,0,38.9789377,48.4895435,594808062536931962,71971
yelyzavetivka,elizavetivka;elizavetovka;yelizavetovka;yelyzavetivka;yelyzavetovka,village,Q4174834,4,0,38.9733392,48.355666,594233060905272475,71971
verhulivka,vergulyovka;verhulivka;verhulovka,town,Q4107569,4,0,38.5303026,48.4062155,594450171501642239,71971
lisne,lesnoe;lisne;lisnoe;lisnoye,village,Q4259592,4,0,39.020409,48.1987823,593559249256053881,71971
brianka,brianka;bryanka,town,Q1659768,4,0,38.6825944,48.4846878,594787206175446242,71971
khrystove,khristovo;khrystove,village,Q4501484,,0,39.3429691,48.727483,595830002760738936,71971
purdivka,purdivka;purdovka,village,Q4383861,4,0,38.5743291,48.9791,596910689546087929,71971
borovenky,borovenki;borovenky,village,Q4094233,4,0,38.57137,49.0430554,597185374179500650,71971
yepifanivka,epifanovka;yepifanivka;yepifanovka,village,Q4176072,4,0,38.5720096,49.0807277,597347178482443498,71971
krasnorichenske,krasnorechenskoe;krasnorichenske,town,Q4239003,4,0,38.2052282,49.2128311,597914556546780204,71971
mykhailivka,mikhailovka;mikhaylovka;mykhailivka;mykhailovka;mykhaylivka;mykhaylovka,village,Q4297550,4,0,38.5627949,49.105081,597451769526026475,71971
velykyi loh,velikiy log;veliky log;velykyi loh,town,Q4106537,,0,39.5687405,48.2597451,593821083347868260,71971
verkhnia krasnianka,verkhnia krasnianka;verkhnyaya krasnyanka,village,Q2559184,,0,39.5109067,48.2691459,593861460335360123,71971
hirne,gornoe;hirne,town,Q4144586,,0,39.6050048,48.2752884,593887840024586253,71971
myrne,mirne;mirnoe;mirnoye;myrne,town,Q4295758,,0,39.6521633,48.2888996,593946303119466563,71971
novooleksandrivka,novoaleksandriyevka;novoaleksandrovka;novooleksandriivka;novooleksandrivka;novooleksandrovka;novoolexandrivka,town,Q4323034,,0,39.637799,48.2641325,593839929664432167,71971
talove,talove;talovoe,town,Q4450565,,0,39.6724731,48.3100152,594036991353941913,71971
shyroke,shirokoe;shirokoye;shyroke,village,Q4524434,,0,39.5932996,48.3096737,594035526770014804,71971
novosvitlivka,novosvetlovka;novosvitlivka;novosvitlovka,town,Q4325240,,0,39.5057872,48.4948974,594831053497394299,71971
bilorichenskyi,belorechenskiy;belorechensky;bilorichenskyi,town,Q816136,,0,39.0841761,48.4521341,594647387810493840,71971
vrubivskyi,vrubivskyi;vrubovskiy;vrubovsky,town,Q4127223,,0,39.107463,48.4238165,594525767221596295,71971
malomykolaivka,malomykolaivka;malonikolaevka,town,Q4278375,4,0,39.0217642,48.3066888,594022706292064708,71971
bilohorivka,belogorovka;bilohorivka;bilohorovka,town,Q4082328,4,0,38.2514176,48.9270594,596687175152713882,71971
vovchoiarivka,volcheyarovka;vovchoiarivka;vovchoiarovka,town,Q7292626,4,0,38.3720589,48.829335,596267453768800219,71971
vrubivka,vrubivka;vrubovka,town,Q4127221,4,0,38.38168,48.751745,595934207256313200,71971
donetskyi,donetskiy;donetsky;donetskyi,town,Q4166212,4,0,38.6744494,48.6961358,595695368420242705,71971
komyshuvakha,kamyshevakha;komyshuvakha,town,Q7259602,4,0,38.4258155,48.696385,595696437866850775,71971
maloriazantseve,maloriazantseve;maloryazantsevo,town,Q4278425,4,0,38.3804059,48.886881,596514611956824182,71971
myrna dolyna,mirnaya dolina;myrna dolyna,town,Q4295696,4,0,38.476525,48.80985,596183762036174829,71971
novotoshkivske,novotoshkivske;novotoshkovskoe;novotoshkovskoye,town,Q4325962,4,0,38.6308542,48.7254607,595821318336154310,71971
hannivka,annovka;gannivka;gannovka;hannivka;hannovka,town,Q4066716,4,0,38.5511922,48.4845545,594786634944664472,71971
kypuche,artemivsk;artyomovsk;katerinovka;kipuchee;kypuche,town,Q2350829,4,0,38.71611,48.4369832,594582314760624078,71971
bairachky,bairachky;bayrachki,town,Q4075714,4,0,38.5989229,48.3885323,594374219300048395,71971
bilolutsk,belolutsk;bilolutsk,town,Q4082575,4,0,39.02824,49.69923,600003624345410319,71971
buhaivka,bugaevka;bugayevka;bugayovka;buhaivka,town,Q4097717,4,0,38.8708587,48.4198875,594508892294853707,71971
horodyshche,gorodishche;horodyshche,town,Q4145192,4,0,38.635225,48.32096,594083999769959385,71971
kalynove,kalinove;kalinovo;kalynove,town,Q4209878,4,0,38.508965,48.56532,595133517978283685,71971
lozno oleksandrivka,lozno aleksandrovka;lozno oleksandrivka;lozno oleksandrovka,town,Q4265494,4,0,38.735475,49.83836,600601183145010035,71971
lomuvatka,lomovatka;lomuvatka,town,Q4266231,4,0,38.5573071,48.4572031,594669158999190395,71971
seleznivka,seleznivka;seleznovka;seleznyovka,town,Q4413511,4,0,38.7890285,48.3991928,594420007946581157,71971
fashchivka,fashchevka;fashchivka;fashchovka,town,Q4481599,4,0,38.6682781,48.2199838,593650311152311542,71971
sentianivka,frunze;sentianivka;sentianovka;sentyakovka;sentyanovka,town,Q4493104,4,0,38.752588,48.6756935,595607570698856012,71971
tsentralnyi,tsentralny;tsentralnyi;tsentralnyy,town,Q4504231,4,0,38.575315,48.3530895,594221997069119955,71971
yuzhna lomuvatka,yuzhna lomuvatka;yuzhnaya lomovatka,town,Q4533905,4,0,38.5320031,48.4383046,594587992707205283,71971
yashchykove,yashchikovo;yashchykove,town,Q4539979,4,0,38.7506676,48.4084767,594459882422918860,71971
zolotarivka,zolotarivka;zolotarovka;zolotaryovka,village,Q4193151,4,0,38.2722196,48.8786458,596479242901033436,71971
verkhnie pishchane,verkhnee peschanoe;verkhnie pishchane,village,Q4108387,3,0,34.7607114,50.9734674,605476430583495943,71250
karnaukhivka,karnaukhivka;karnaukhovka,town,Q3193525,5,0,34.7390428,48.4707416,594727308557592675,101746
fedorivka,fedorivka;fedorovka;fyodorovka,village,Q4494067,4,0,36.9680295,48.7985147,596135082875333470,71254
yelyzavetivka,elizavetivka;elizavetovka;yelizavetovka;yelyzavetivka;yelyzavetovka,village,Q4174836,,0,34.6482707,48.6176062,595358084634461647,101746
zelenyi hai,zelene gai;zelene hai;zeleny gai;zeleny hai;zelenyi gay;zelenyi hai;zelenyy gai;zelenyy gay;zelenyy hai;zelyony gay;zelyonyy gay,village,Q4190849,3,0,34.8739402,50.9823427,605514552713328468,71250
pokrovka,pokrovka,village,Q4369180,3,0,35.3711243,50.803194,604745113617714548,71250
gurzuf,gurzuf,town,Q1026062,,0,34.2914831,44.5475936,577877516199777307,72639
zahirske,zagorskoe;zahirske,village,Q4183610,3,0,34.7291403,50.9616968,605425878818390452,71250
sokolohirne,sokologornoe;sokolohirne,village,Q4427430,2,0,34.9471772,46.5000448,586263229392475497,71022
zalisne,zalesnoe;zalisne,village,Q4185200,,0,33.786253,44.6234852,578203465562332813,72639
bezdryk,bezdrik;bezdryk,village,Q4080874,3,0,34.9476055,50.8666609,605017702306666262,71250
mayak,mayak,hamlet,Q4286324,,0,32.4974467,45.3471066,581311398385710119,72639
novosimeikine,novosemeykino;novosimeikine,village,Q4325397,,0,39.6166868,48.3437725,594181980859864495,71971
kupiansk vuzlovyi,kupiansk vuzlovyi;kupyansk uzlovoy,town,Q12115849,4,0,37.6354738,49.6601361,599835716892547730,71254
teplychne,teplichnoe;teplychne,village,Q4455240,,0,39.2296038,48.5828714,595208898950016420,71971
pribrezhnoye,pribrezhnoe;pribrezhnoye;pryberezhne,village,Q4377703,,0,33.5094265,45.148135,580456820153902386,72639
rozkishne,roskoshnoe;rozkishne,village,Q4397788,,0,39.2740551,48.4920951,594819018998799175,71971
blahovishchenka,blagoveshchenka;blahovishchenka,village,Q4087723,,0,40.0287365,48.9010668,596575540364533569,71971
khrystoforivka,khristoforovka;khrystoforivka;khrystoforovka,village,Q4501519,4,0,39.0075099,48.173921,593452472074095126,71971
popovka,popivka;popovka,village,Q4372735,,0,39.9174935,48.3697127,594293392311823541,71971
sievernyi,severny;severnyy;sievernyi,town,Q4412250,,0,39.9228009,48.3566336,594237218434564465,71971
vlasovka,vlasivka;vlasovka,village,Q4113524,,0,39.8777987,48.2727825,593877076836815271,71971
liubyme,liubyme;lyubimoe,village,Q7232977,,0,39.4659687,47.8773202,592178580479592689,71971
nova oleksandrivka,nova oleksandrivka;novaya aleksandrovka;novaya oleksandrovka,village,Q4321926,3,0,33.9713465,51.1239185,606122617002324371,71250
kliuchove,kliuchove;klyuchevoe,village,Q4224419,,0,39.2527436,48.3846963,594357743806154760,71971
myrne,mirne;mirnoe;mirnoye;moskovskiy;moskovskoe;moskovsky;myrne,village,Q4304369,3,0,33.9232921,50.6073852,603904120365004252,71250
vesela dolyna,vesela dolyna;vesyolaya dolina,village,Q4109721,3,0,33.8964807,50.6121867,603924744797932833,71250
tekstylnyk,tekstylnyk,suburb,Q4453873,5,0,37.6914517,47.9454261,592471093520479548,71973
vyry,viry;vyry,village,Q4112132,3,0,34.4165799,51.036088,605745385730194628,71250
turia,turia;turya,village,Q4466549,3,0,35.3550392,50.8929481,605130604112383647,71250
belogorsk,belogorsk;bilohirsk,town,Q863330,,0,34.572274,45.0485392,580029058592152818,72639
filonivshchyna,filonivshchyna;filonovshchina,village,Q4484309,3,0,34.460713,50.7981113,604723282298038569,71250
holubivka,golubivka;golubovka;golubowka;holubivka;holubovka,village,Q4142489,3,0,34.4357014,50.8009844,604735621739054965,71250
nove,nove;novoe;novoye,village,Q4323729,2,0,33.61089,46.3627462,585673534676365705,71022
horokhovatka,gorokhovatka;horokhovatka,village,Q4145789,4,0,37.521463,49.3432181,598474564446919990,71254
mykolaivka,mykolaevka;mykolaivka;mykolayivka;nikolaevka;nikolayevka;zhovtneve,town,Q4180867,3,0,34.3764374,50.9435519,605347946636451829,71250
bili kuchuhury spit,bili kuchuhury spit;byelyye kuchugury spit;kosa belye kuchugury,locality,Q4083005,2,0,31.6471877,46.2427015,585157949620320980,71022
maiske,maiske;maiskii;maiskiy;mayskoe,village,Q4275129,,0,34.5565389,45.5917774,582362248036081531,72639
azovskoye,azovskoe;azovskoye,town,Q2473074,,0,34.5774131,45.5819413,582320002737778949,72639
oktiabrske,biiuk onlar;oktiabrske;oktiabrskoe;oktyabrskoe,town,Q1984515,,0,34.1347307,45.2906837,581069063447605195,72639
krasnohvardiiske,krasnogvardeyskoe;krasnogvardeyskoye;krasnohvardiiske;kurman,town,Q2367699,,0,34.3076808,45.51549,582034597865722721,72639
tankovoye,tankovoe;tankovoye,hamlet,Q4451232,,0,33.8316625,45.9460959,583884036552708079,72639
sovietskyi,ichki;sovetskiy;sovetsky;sovietskyi,town,Q2627007,,0,34.9323841,45.3499994,581323819433565088,72639
alupka,alupka,town,Q448047,,0,34.0427993,44.4185145,577323126115928239,72639
korotych,korotych,town,Q4234163,3,0,36.0399748,49.9467833,601066856381448743,71254
andriivka,andreevka;andreyevka;andriivka;andriovka,village,Q4065580,,0,36.3128945,48.7164826,595782753822485566,71254
varvarivka,varvarivka;varvarovka,village,Q4103617,4,0,36.5766163,48.6356056,595435394047717992,71254
verkhnovodiane,verkhnevodyanoe;verkhnovodiane,village,Q4108322,,0,36.211004,48.7565718,595954939061280316,71254
verkhnia samara,verkhnia samara;verkhnyaya samara,village,Q4108954,4,0,36.6272333,48.6422907,595464105904142369,71254
vesele,vesele;veseloe;veseloye;veselye;vesyoloe,village,Q4109777,4,0,36.5995389,48.6212429,595373705432468467,71254
vodolazke,vodolazhskoe;vodolazke,village,Q4114086,,0,36.4458327,48.745402,595906964276818825,71254
hannivka,annovka;gannivka;gannovka;hannivka;hannovka,village,Q4066714,4,0,36.5938194,48.7018304,595719823961945499,71254
dmytrivka,dmitrivka;dmitriyevka;dmitrovka;dmytrivka;dmytrovka,hamlet,Q4162958,,0,36.2994866,48.7033921,595726532700567519,71254
kryshtopivka,kryshtopivka;kryshtopovka,village,Q4243056,,0,36.2937171,48.6713005,595588702905065813,71254
mykolaivka druha,mykolaivka druha;nikolaevka vtoraya;nikolayevka vtoraya,village,Q4320390,,0,36.2707061,48.6314164,595417398134441842,71254
mykolaivka persha,mykolaivka persha;nikolaevka pervaya;nikolayevka pervaya,village,Q4320395,4,0,36.6568946,48.7924182,596108896459418623,71254
novoivanivka,novo ivanovka;novoivanivka;novoivanovka,village,Q4324061,4,0,36.6731226,48.6833637,595640508800969571,71254
novopokrovka,novo pokrovka;novopokrovka,village,Q4324972,4,0,36.7262387,48.6522685,595506956792953567,71254
novoselivka,novoselivka;novoselovka;novosyolovka,village,Q4325803,,0,36.386942,48.7014636,595718252003708286,71254
novoukrainka,novo ukrainka;novoukrainka,village,Q4326041,4,0,36.516942,48.6951337,595691064860854606,71254
odynetske,odinetskoe;odynetske,hamlet,Q4331556,4,0,36.5919746,48.7268032,595827082180226663,71254
oleksandrivka,aleksandrovka;oleksandrivka;oleksandrovka,village,Q4061203,4,0,36.6410951,48.7641555,595987512093683271,71254
osterske,osterske;osterskoe,village,Q4338657,,0,36.4761161,48.7053537,595734959426578900,71254
pavlivka,pavlivka;pavlovka;pavlyivka,village,Q4341615,4,0,36.5993558,48.6582357,595532589157649212,71254
vyshneve,radgospnoe;radhospne;vishnyovoe;vyshneve;vyshnevoe;vyshnyove;vyshnyovoye,village,Q4387122,,0,36.4111262,48.6200324,595368504226884598,71254
riasne,riasne;ryasnoe,village,Q4402769,4,0,36.6950368,48.7307873,595844193330036989,71254
sadove,sadove;sadovoe;sadovoye,village,Q4404710,4,0,36.5822759,48.8295537,596268394364848260,71254
samiilivka,samiilivka;samiilovka;samoylovka,village,Q4406755,,0,36.285213,48.7051408,595734044598353949,71254
sofiivka,sofievka;sofiivka;sofiovka;sofiyivka,village,Q4429940,4,0,36.701172,48.6912425,595674353143290100,71254
tymofiivka,timofeevka;timofiivka;tymofiivka;tymofiovka;tymofiyivka,village,Q4457606,,0,36.3867575,48.6702009,595583978441133254,71254
fedorivka,fedorivka;fedorovka;fyodorovka,village,Q4482020,4,0,36.6068257,48.6738112,595599483273291882,71254
chervone,chervone;chervonoe;chervonoye,village,Q4512244,4,0,36.7028625,48.6785534,595619850008305551,71254
yakovivka,yakovivka;yakovovka,village,Q4537040,4,0,36.5879033,48.7164843,595782762412695166,71254
staryi saltiv,stary saltiv;stary saltov;staryi saltiv;staryy saltov,town,Q4441136,3,0,36.7754622,50.0771151,601626628059806502,71254
muravske,muravske;muravskoe,village,Q4307677,3,0,35.9065815,50.3675601,602874079835224342,71254
andriivka,andreevka;andreyevka;andriivka;andriovka,village,Q4065601,3,0,35.9908777,50.3524511,602809187174433374,71254
zavadske,zavadske;zavadskoe,village,Q4182871,3,0,35.857979,50.3582035,602833896121154363,71254
zrubanka,zrubanka,village,Q4194182,3,0,36.0037545,50.2899874,602540906337268906,71254
ivashky,ivashki;ivashky,village,Q4197040,3,0,35.8222808,50.3937396,602986522078949321,71254
skoryky,skoriki;skoryky,village,Q4422246,3,0,35.8519753,50.3773044,602915929996501959,71254
shyrokyi yar,shirokiy yar;shiroky yar;shyrokyi yar,village,Q4524367,3,0,35.8444336,50.3499116,602798282252322386,71254
okip,okip;okop,village,Q4332657,3,0,36.1467775,50.4196063,603097615703352153,71254
blahodatne,artemivka;artyomovka;blagodatne;blagodatnoe;blagodatnoye;blahodatne,village,Q4070433,3,0,36.4548547,49.9731953,601180295058085575,71254
izium,izium;izyum,town,Q544003,4,0,37.2805463,49.2036725,597875223235358754,71254
zlatopil,likhachyovo;pervomaiskyi;pervomayskiy;pervomaysky;zlatopil;zlatopol,town,Q889579,,0,36.2313618,49.3728473,598601820031643074,71254
ukrainka,ukrainka,village,Q4470438,,0,34.5363056,48.4981714,594845115215351922,101746
bubnove pershe,bubnove pershe;bubnovo pervoe,village,Q4097671,,0,36.2175043,48.7391784,595880232400140192,71254
novopavlivka,novopavlivka;novopavlovka,village,Q4324810,,0,36.2255516,48.7419311,595892056445114128,71254
svitle,svetloe;svetloye;svitle,village,Q4410403,,0,34.7022393,48.4446418,594615209911130271,101746
zoryane,pershe travnya;zarevoe;zoryane;zoryanoe,village,Q4359432,5,0,35.1729095,48.3109258,594040904064649006,101746
starobilsk,starobelsk;starobilsk,town,Q987345,4,0,38.9087317,49.2762415,598186900423723068,71971
vodiane,vodiane;vodianoe;vodyane;vodyanoe;vodyanoye,village,Q4114242,1,0,33.4827333,47.7146934,591480102827162861,101746
krasnaya zorka,krasnaya zorka,village,Q4237995,,0,34.0386488,45.1312906,580384475725297785,72639
pavlohrad,pavlograd;pavlohrad,village,Q4341856,4,0,38.4479267,48.9203487,596658355922354231,71971
voievodivka,voevodovka;voievodivka;voievodovka,village,Q4114290,4,0,38.44458,48.980465,596916552176317220,71971
milove,melovoe;milove,town,Q290569,,0,40.1383941,49.3707211,598592688935078810,71971
novovasylivka,novo vasilyevka;novovasilevka;novovasilyevka;novovasylivka;novovasylovka,village,Q4323290,2,0,33.5572528,47.2657236,589551795655319557,71022
novopavlivka,novopavlivka;novopavlovka,village,Q4324811,2,0,33.1475928,47.3696109,589997986922389449,71022
pervomaiske,pervomaiske;pervomayskoe,village,Q4349473,2,0,33.2096509,47.3614845,589963086018204211,71022
tverdomedove,tverdomedove;tverdomedovo,village,Q4453164,2,0,33.2836296,47.3503274,589915162773189422,71022
petropavlivka,petropavlivka;petropavlovka,village,Q4361502,2,0,33.5694276,47.2954263,589679364773957524,71022
henichesk,genichesk;henichesk,town,Q761130,2,0,34.790554,46.1813659,584894513509396890,71022
bokovo platove,bokovo platove;bokovo platovo,town,Q4090589,4,0,39.0135804,48.1161972,593204549381906892,71971
verkhnii naholchyk,verkhnii naholchyk;verkhniy nagolchik;verkhny nagolchik,town,Q4108716,,0,39.0856352,48.0820891,593058056637446979,71971
dubivskyi,dubivskyi;dubovskiy;dubovskoe;dubovsky;gromovskiy;gromovsky;posyolok shakhty №26,town,Q427843,,0,39.1289262,48.0641799,592981138068186206,71971
kripenskyi,krepenskiy;krepensky;kripenskyi,town,Q4240238,,0,39.0423766,48.0755555,593029997616058953,71971
korobkyne,korobkino;korobkyne,village,Q4233516,,0,39.4051172,48.1358089,593288782280907581,71971
voznesenivka,chervonopartizansk;chervonopartyzansk;chervony partizan;chervonyi partyzan;krasny partizan;voznesenivka;voznesenovka,town,Q664445,,0,39.801491,48.071325,593011825610188691,71971
matviivka,matveevka;matviivka;matviovka,village,Q4284586,,0,39.5631516,48.0344262,592853345611695248,71971
panchenkove,panchenkove;panchenkovo,village,Q4344475,,0,39.7700234,48.043949,592894246585461927,71971
korinne,korennoe;korinne,village,Q4232904,4,0,38.8267562,48.0780028,593040507400816644,71971
zaporizhzhia,aleksandrovsk;zaporizhzhia;zaporizhzhya;zaporozhe;zaporozhie;zaporozhye,town,Q4186983,4,0,38.721115,48.2671553,593852909054683995,71971
beryslav,berislav;beryslav,town,Q829317,2,0,33.426693,46.83928,587720232621613573,71022
esman,chervone;chervonoe;esman,town,Q4512254,3,0,34.0797173,51.7761203,608923798967851237,71250
butove,butove;butovo,village,Q4100268,4,0,38.9347963,49.2558462,598099304565747212,71971
sofiivka,sofievka;sofiivka;sofiovka;sofiyivka,village,Q4429974,,0,34.0010526,45.093872,580223762344011165,72639
verkhnoharasymivka,verkhnegarasimovka;verkhnegerasimovka;verkhnoharasymivka;verkhnoharasymovka,village,Q4108336,,0,39.9338812,48.2705519,593867499059801273,71971
provallia,provale;provallia,village,Q4379597,,0,39.8254513,48.1479863,593341082098091307,71971
mefedivka,mefedivka;mefedovka;mefodovka,village,Q4292080,3,0,33.5226667,52.2489753,610954695728044267,71250
stiahailivka,stiahailivka;stiahailovka;styagaylovka,village,Q4444856,3,0,33.6597101,52.2696816,611043631615979582,71250
znob trubchevska,znob trubchevska;znob trubchevskaya,village,Q4192963,3,0,33.5734195,52.291608,611137803068825387,71250
chernatske,chernatske;chernatskoe;chernatskoye,village,Q4513336,3,0,33.9232966,52.1782577,610650968526173665,71250
rudak,rudak,village,Q4399287,3,0,33.9908567,52.1765312,610643551117721033,71250
makove,makove;makovo,village,Q4275916,3,0,33.62908,51.8337383,609171262098094232,71250
uhroidy,ugroedy;uhroidy,town,Q4469183,3,0,35.2689277,50.8629459,605001746503482944,71250
myropillia,miropole;miropolye;myropillia,village,Q4296188,3,0,35.2571789,51.0229672,605689031465144411,71250
hirnyk,gornyak;hirnyk,town,Q4144731,,0,39.1944829,48.0677587,592996509756204147,71971
sadovyi,sadovy;sadovyi;sadovyy,village,Q4404828,4,0,38.993395,48.099005,593130710304133875,71971
velykyi sukhodil,bolshoy sukhodol;velikiy sukhodol;veliky sukhodol;velykyi sukhodil,village,Q4106562,,0,39.8884451,48.4276378,594542178292415293,71971
pidhirne,pidhirne;podgornoe,village,Q4367352,,0,39.8886872,48.390713,594383586625010735,71971
bilenke,belenkoe;bilenke,village,Q4081838,,0,39.897368,48.3538235,594225145281469976,71971
malyi sukhodil,maly sukhodol;malyi sukhodil;malyy sukhodol,village,Q4279130,,0,39.841575,48.3655247,594275404988711975,71971
druzhne,druzhne;druzhnoe,village,Q4168872,,0,39.7595127,48.3961937,594407127340630937,71971
lypove,lipovoe;lipovoye;lypove,village,Q7239181,,0,39.7250279,48.4132472,594480369417895140,71971
habun,gabun;habun,village,Q4130982,,0,39.6854483,48.4495745,594636388399850056,71971
ananivka,ananevka;ananivka;ananovka,village,Q4064816,,0,39.7149443,48.0610747,592967802195318144,71971
oleksandrivka,aleksandrovka;oleksandrivka;oleksandrovka,village,Q4061315,,0,39.748705,48.07248,593016782002395489,71971
zymivnyky,zimovniki;zymivnyky,village,Q4192087,,0,39.8173133,48.1000471,593135185660880225,71971
kalynnyk,kalinnik;kalynnyk,village,Q4209708,,0,39.7996134,48.1270829,593251304396677181,71971
maiak,maiak;mayak,village,Q4286326,,0,39.7681674,48.1279323,593254950823880039,71971
bobrykivka,bobrikovka;bobrykivka;bobrykovka,village,Q4088687,,0,39.7207942,48.133517,593278933921213530,71971
batyr,batyr,village,Q4079584,,0,39.6966188,48.1720883,593444599399730667,71971
verkhnoderevechka,verkhnederevechka;verkhnoderevechka,hamlet,Q4108344,,0,39.7204454,48.1914925,593527943240133372,71971
kuriache,kuriache;kuryache,village,Q4249170,,0,39.607,48.1677494,593425963536543704,71971
medvezhanka,medvezhanka,village,Q4287506,,0,39.520825,48.1716269,593442619419631417,71971
mykolaivka,mykolaevka;mykolaivka;mykolayivka;nikolaevka;nikolayevka,village,Q4320351,,0,39.46555,48.16243,593403118605354830,71971
nahirne,nagornoe;nahirne,village,Q4311651,,0,39.4604,48.1842668,593496907806192432,71971
valianivsk,valianivsk;valyanovsk,village,Q4103175,,0,39.5214091,48.0752532,593028696241447297,71971
novodarivka,novodarevka;novodarivka;novodarovka,town,Q4323564,,0,39.4774858,48.0780504,593040709264930286,71971
kalynivka,kalinovka;kalynivka;kalynovka,village,Q4209830,,0,39.4904211,48.1001372,593135572207609973,71971
pokrovka,pokrovka,village,Q4369185,,0,39.495335,48.11256,593188928586333095,71971
klenovyi,klenovy;klenovyi;klenovyy,town,Q4223348,,0,39.4547393,48.1194218,593218400651877651,71971
dovzhanske,dolzhanskoe;dovzhanske,village,Q4164824,,0,39.7526997,47.8581255,592096138582632700,71971
bratske,bratske;bratskoe;bratskoye,hamlet,Q4095976,,0,39.7171425,47.9234994,592376917774605847,71971
karpove kripenske,karpove kripenske;karpovo krepenskoe,village,Q4215901,,0,39.597815,47.9473071,592479172355869687,71971
darino yermakivka,darino ermakovka;darino yermakivka;darino yermakovka,village,Q4155144,,0,39.60305,47.8939284,592249911296581738,71971
astakhove,astakhove;astakhovo,village,Q4071615,,0,39.613435,47.8594042,592101627550697723,71971
ivashchenko,ivashchenko,village,Q4197112,,0,39.538495,47.9754462,592600028440552511,71971
zelenopillia,zelenopillia;zelenopole,village,Q4190388,,0,39.4776134,47.9215675,592368624192517741,71971
marivka,marevka;marivka;mariyevka;marovka;maryivka,village,Q4283389,,0,39.411124,47.9686631,592570895677256372,71971
darivka,darevka;darivka;darovka,village,Q4155136,,0,39.4273406,47.9813113,592625218423632397,71971
naholno tarasivka,nagolno tarasovka;naholno tarasivka;naholno tarasovka,town,Q4311615,,0,39.4894847,47.9944433,592681619934225613,71971
utkyne,utkino;utkyne,village,Q4478916,,0,39.5946193,48.0389618,592872827583381371,71971
rytykove,rytikovo;rytykove,village,Q4402093,,0,39.5666358,48.0167778,592777548028858924,71971
antrakop,antrakop,hamlet,Q4067590,,0,39.5415775,48.023645,592807041569255498,71971
berezivka,berezivka;berezovka,hamlet,Q4084605,,0,39.5336255,48.009421,592745949954429241,71971
platonivka,platonivka;platonovka,village,Q4364693,,0,39.3289518,47.9478594,592481543177548216,71971
blahivka,blagovka;blahivka;blahovka,village,Q4087809,,0,39.3586983,47.9544793,592509975861077482,71971
novodarivka,novodarevka;novodarivka;novodarovka,village,Q4323567,,0,39.378775,47.966305,592560768144340055,71971
hrybuvakha,gribovakha;hrybuvakha,village,Q4148924,,0,39.3261141,47.9831784,592633237127472802,71971
ulianivka,ulianivka;ulianovka;ulyanovka,village,Q4475124,,0,39.3751341,48.0084686,592741861145404958,71971
yasenivskyi,yasenivskyi;yasenovskiy;yasenovsky,town,Q4539222,,0,39.2132682,48.1596362,593391118466477524,71971
kartushyne,kartushino;kartushyne,village,Q4216278,,0,39.2530721,48.1839136,593495391682529616,71971
rebrykove,rebrikovo;rebrykove,village,Q4391589,,0,39.2851513,48.2089876,593603083692541598,71971
verbivka,verbivka;verbovka,village,Q4107488,,0,39.3335245,48.1465672,593334987539006357,71971
mechetka,mechetka,village,Q4292291,,0,39.3453722,48.1766148,593464042716328412,71971
kondriuche,kondriuche;kondryuchee,village,Q4230664,,0,39.6255612,48.0304224,592836148562704473,71971
kyseleve,kiselyovo;kyseleve,village,Q4222124,,0,39.5206869,48.0362274,592861080847752879,71971
ustynivka,ustinovka;ustynivka;ustynovka,village,Q4478263,,0,39.5499387,48.0919063,593100220331856115,71971
malovedmezhe,malomedvezhe;malomedvezhye;malovedmezhe;malovedmezhye,village,Q4278098,,0,39.5314028,48.0916796,593099249669228683,71971
fedorivka,fedorivka;fedorovka;fyodorovka,village,Q4494117,,0,39.5207761,48.1098525,593177302109888264,71971
pavlivka,pavlivka;pavlovka;pavlyivka,town,Q4341679,,0,39.5429921,48.1330862,593277087085098448,71971
makedonivka,makedonivka;makedonovka,village,Q4275645,,0,39.2930585,48.2351066,593715263943353731,71971
kamianka,kamenka;kamianka;kamjanka;kamyanka,village,Q12108076,,0,39.3946284,48.2426684,593747738191180356,71971
bokove,bokove;bokovo,hamlet,Q4090585,,0,39.4287997,48.2332706,593707378383534016,71971
paliivka,palievka;paliivka;paliovka,village,Q4342613,,0,39.4155684,48.2361485,593719735004431376,71971
verkhnia orikhivka,verkhnia orikhivka;verkhnia orikhovka;verkhnyaya orekhovka,village,Q4108920,,0,39.3405336,48.3557713,594233511877205750,71971
shovkova protoka,shovkova protoka;shyolkovaya protoka,village,Q4528257,,0,39.2568594,48.3050166,594015525106980891,71971
novobulakhivka,novobulakhivka;novobulakhovka,village,Q4323282,,0,39.0867121,48.2995871,593992203434393464,71971
krasnyi yar,krasny yar;krasnyi yar;krasnyy yar,hamlet,Q4239656,,0,39.4786874,48.2976709,593983974277446303,71971
hlyboke,glubokoe;hlyboke,hamlet,Q4140133,,0,39.4658481,48.3153968,594060106867722360,71971
krasne,krasne;krasnoe;krasnoye,village,Q4238612,,0,39.5012247,48.3724541,594305164816765609,71971
andriivka,andreevka;andreyevka;andriivka;andriovka,hamlet,Q4065609,,0,39.4933252,48.3543884,594227571937588173,71971
simeikyne,semeykino;simeikyne,town,Q4415117,,0,39.543142,48.3335847,594138223732979302,71971
valiivka,valievka;valiivka;valiovka,village,Q4102887,,0,39.4919771,48.5180797,594930623724203657,71971
komisarivka,komisarivka;komisarovka;komissarovka,village,Q4229629,,0,39.5025311,48.4685133,594717735080253379,71971
novohannivka,novoannovka;novohannivka;novohannovka,village,Q4323160,,0,39.5237338,48.4320662,594561196407237270,71971
vydno sofiivka,vidno sofievka;vydno sofiivka;vydno sofiovka,village,Q4110658,,0,39.5114011,48.4544639,594657395084720745,71971
katerynivka,katerinovka;katerynivka;katerynovka,village,Q4217328,,0,39.5271909,48.4596379,594679612950558743,71971
lyse,lyse;lysoe,village,Q4270788,,0,39.5823535,48.4748408,594744913633382290,71971
prydorozhne,pridorozhnoe;prydorozhne,village,Q4378168,,0,39.593879,48.3950812,594402347041864855,71971
samsonivka,samsonivka;samsonovka,village,Q4407063,,0,39.6202536,48.3685495,594288397264561054,71971
metalist,metalist;metallist,village,Q4291533,,0,39.2802,48.6213803,595374293845668680,71971
pankivka,pankivka;pankovka,hamlet,Q4344517,,0,39.3520645,48.7028651,595724269255855103,71971
haiove,gaevoe;haiove,village,Q4131601,,0,39.13719,48.5425088,595035545479922854,71971
sabivka,sabivka;sabovka,village,Q4403573,,0,39.1415619,48.5806293,595199269633250746,71971
uspenka,uspenka,town,Q4477943,,0,39.1471732,48.3897589,594379489225468837,71971
heorhiivka,georgievka;heorhiivka;heorhiovka,town,Q4135760,,0,39.2526644,48.428606,594546335820122040,71971
vyshneve,vishnyovoe;vyshneve;vyshnevoe;vyshnyove;vyshnyovoye,village,Q4112834,,0,39.2088433,48.0176158,592781147211095179,71971
yehorivka,egorovka;yegorovka;yehorivka;yehorovka,village,Q4173811,,0,39.1966921,47.9806077,592622199061392659,71971
diakove,diakove;dyakovo,village,Q4171836,,0,39.1421494,47.9481443,592482767243040773,71971
leskyne,leskino;leskyne,village,Q4259996,,0,39.2114868,48.0963482,593119298576246495,71971
illinka,ilenka;ilinka;illinka;ilyinka,hamlet,Q4199619,,0,39.2225889,48.0905213,593094271801823805,71971
rafailivka,rafailivka;rafailovka;rafaylovka,village,Q4390982,,0,39.1994762,48.120317,593222244647352308,71971
zelenodilske,zelenodilske;zelenodolskoe,village,Q4190374,,0,39.2079493,48.2142626,593625739644950796,71971
stepove,stepove;stepovoe;stepovoye,village,Q4442201,,0,39.0632322,48.1867315,593507494900179904,71971
chervona poliana,chervona poliana;chervona polyana;chervonaya polyana,village,Q4512116,,0,39.1014844,48.2434744,593751199934527788,71971
kovpakove,kolpakovo;kovpakove,village,Q4228658,,0,39.0901442,48.2066056,593592853080247520,71971
zakhidne,zakhidne;zakhidnoe;zapadnoe,village,Q4188903,4,0,39.0240115,48.2858842,593933349497473676,71971
soniachne,solnechnoe;soniachne,village,Q4427798,4,0,38.9250272,48.3344252,594141831504889827,71971
kovylne,kovylne;kovylnoe,village,Q4225944,4,0,38.9230048,48.2812933,593913631302516733,71971
stepove,stepove;stepovoe;stepovoye,village,Q4442202,4,0,38.9357507,48.284881,593929037350220231,71971
mykytivka,mykytivka;mykytovka;nikitovka,village,Q4319876,4,0,38.8952333,48.3382299,594158173855421313,71971
shyrokyi,shirokiy;shiroky;shyrokyi,village,Q4524352,4,0,38.8609278,48.3324439,594133323174612352,71971
bashtevych,bashtevich;bashtevych,hamlet,Q4080290,4,0,38.8657826,48.3671572,594282414374363255,71971
kozakivka,kazakovka;kozakivka;kozakovka,hamlet,Q4207592,4,0,39.0251058,48.2199549,593650186598616786,71971
orlivske,orlivske;orlovskoe;orlovskoye,village,Q4336917,4,0,39.0197629,48.2293932,593690722499951091,71971
ivanivka,ivanivka;ivanovka,town,Q50824,4,0,38.9494461,48.2331829,593707000425932614,71971
tamara,tamara,village,Q4450804,4,0,38.8642376,48.249295,593776200938920558,71971
urozhaine,urozhaine;urozhaynoe,village,Q4477205,4,0,38.846455,48.242,593744869152478455,71971
davydivka,davydivka;davydovka,village,Q4153840,4,0,38.8252545,48.2548202,593799930633191974,71971
hrushove,grushyovoe;hrushove,town,Q4150980,4,0,38.8095817,48.2470251,593766451363103982,71971
industriia,industriia;industriya,village,Q4200943,4,0,38.7105954,48.2168516,593636859314782787,71971
zelenyi hai,zelenyi gay;zelenyi hai;zelenyy gai;zelenyy gay;zelenyy hai;zelyony gay;zelyonyy gay,village,Q4190830,4,0,38.9617199,48.1813958,593484576954586936,71971
kurhan,kurgan;kurhan,village,Q4247980,4,0,38.9863747,48.1793719,593475883940804487,71971
yesaulivka,esaulovka;evdokievka;yesaulivka;yesaulovka;yevdokievka,town,Q4177052,4,0,39.025507,48.047675,592910249632862307,71971
nyzhnii naholchyk,nizhniy nagolchik;nizhny nagolchik;nyzhnii naholchyk,town,Q4319171,,0,39.0662486,48.0184029,592784527350214537,71971
ridne,pershotravnevoe;ridne;rodnoe,village,Q4359532,3,0,35.9771829,50.2143064,602215858917313759,71254
novoliubivka,novoliubivka;novoliubovka;novolubivka;novolubovka;novolyubovka,village,Q4324425,4,0,37.9501784,49.1557264,597669292439087074,71971
nianchyne,nianchyne;nyanchino,village,Q4328698,4,0,38.708005,49.76197,600273090593241125,71971
chaplynka,chaplinka;chaplynka,town,Q2658192,2,0,33.5343059,46.3638416,585678241960445538,71022
kalanchak,kalanchak,town,Q2010759,2,0,33.2917589,46.2510097,585193632210260719,71022
krasnohorivka,krasnogorovka;krasnohorivka;krasnohorovka,village,Q4238459,5,0,36.6919256,48.4610457,594685664556643542,101746
mykolaivka,mykolaevka;mykolaivka;mykolayivka;nikolaevka;nikolayevka,town,Q2393885,,0,33.6123303,44.9633099,579663002823522090,72639
mykolaivka,mykolaevka;mykolaivka;mykolayivka;nikolaevka;nikolayevka,town,Q3331386,,0,34.7009762,48.5398249,595024017783264176,101746
pokrovske,pokrovska;pokrovske;pokrovskoe;pokrovskoye,town,Q1003105,5,0,36.2365467,47.9825448,592630518410084867,101746
novotroitske,novotroitske;novotroitskoe;novotroitskoye,town,Q2010769,2,0,34.3337187,46.3551377,585640858565900567,71022
vasylkivka,vasilkovka;vasylkivka;vasylkovka,town,Q1011406,5,0,36.0306725,48.2046314,593584370516778449,101746
mezhova,mezhevaya;mezhova;mezhyevaya,town,Q111669,5,0,36.7250051,48.2565755,593807468298696205,101746
petropavlivka,petropavlivka;petropavlovka,town,Q1002960,5,0,36.4363467,48.4551528,594660354314112635,101746
slovianoserbsk,slavyanoserbsk;slovianoserbsk,town,Q608400,4,0,38.9792432,48.6979499,595703159491222443,71971
vysokopillia,vysokopillia;vysokopole,town,Q1571133,2,0,33.5291585,47.493212,590528849175523911,71022
arkhanhelske,arkhangelskoe;arkhanhelske,town,Q3622590,2,0,33.3983997,47.4300597,590257613400716160,71022
velyka oleksandrivka,bolshaya oleksandrovka;velikaya aleksandrovka;velyka oleksandrivka,town,Q1009565,2,0,33.2929068,47.3246531,589804893782841195,71022
albat,albat;kuybyshevo,town,Q2011781,,0,33.8686529,44.6303447,578232929038065773,72639
zymohiria,cherkasskiy brod;cherkasskoe;cherkassky brod;zimogore;zymohiria,town,Q1633740,4,0,38.9291685,48.591953,595247905842698257,71971
travneve,mayskoe;pervomaisk;pervomaysk;travneve;travnevoe,village,Q4349283,4,0,38.26993,49.44929,598930140218689770,71971
oleshky,alyoshki;oleshki;oleshky;tsyurupinsk,town,Q207105,2,0,32.7265426,46.6178326,586769124998116111,71022
verkhivtseve,verkhivtseve;verkhovtsevo,town,Q995147,,0,34.2376924,48.485123,594789074481775100,101746
zelenodolsk,zelenodolsk,town,Q640713,1,0,33.6516333,47.5577842,590806183803883697,101746
samotkan,samotkan,hamlet,Q4406908,,0,34.2838838,48.5908833,595243310223046252,101746
pidluzhzhia,pidluzhzhia;podluzhe;podluzhye,village,Q4367852,,0,34.305338,48.6327185,595422994474863162,101746
tarasivka,tarasivka;tarasovka,village,Q4451735,,0,34.3118757,48.615811,595350375167828931,101746
perevalne,perevalne;perevalnoe,village,Q4350000,,0,34.3162385,44.8443403,579152030565020878,72639
denisovka,denisovka,village,Q4158019,,0,34.2228426,44.9231739,579490620016740347,72639
akropolis,akropolis,village,Q4059811,,0,34.1711176,44.9990029,579816303091777006,72639
ana yurt,ana yurt,village,Q4064688,,0,34.1384275,44.9939558,579794626391801403,72639
aykavan,aykavan,village,Q4058852,,0,34.1512299,45.0058881,579845873941590078,72639
prolitne,prolitne;prolyotnoe,village,Q4380593,,0,34.0758669,45.2126581,580733944329308635,72639
fontany,fontany,village,Q4491775,,0,34.0702638,44.8913298,579353851078013944,72639
orekhovo,orekhovo,village,Q4336318,,0,33.6300805,45.1317256,580386344035662976,72639
michurinovka,michurinovka,village,Q4298314,,0,34.3705509,45.6937579,582800253095708919,72639
dobroe,dobroe,village,Q4163685,,0,34.2510642,44.866021,579245149750900280,72639
ivanivka,ivanivka;ivanovka,village,Q799992,,0,34.2553702,44.9387152,579557368103520010,72639
novofedorovka,novofedorovka;novofyodorovka,town,Q3892437,,0,33.5649646,45.0946796,580227228382182949,72639
boromelske,boromelske;boromelskoe;pershotravnevoe,hamlet,Q4359552,3,0,34.9296453,50.5931386,603842934261911789,71250
zarudne,vasilevka;zarudne;zarudnoe;zarudny;zarudnyy,village,Q4104256,3,0,33.4663433,50.5144918,603505147967519975,71250
masoniv,chervonogorka;masoniv;masonov;masonovshchina,village,Q4512220,3,0,33.7012132,50.5704479,603745477157769821,71250
zhuravlyne,moskalyovshchina;zhuravlinoe;zhuravlyne,hamlet,Q4303630,3,0,34.6850146,50.8719004,605040199345100119,71250
lebedynyi bobryk,bobrik;lebediny bobrik;lebedinyy bobrik;lebedynyi bobryk;moskovskiy bobrik;moskovsky bobrik,village,Q4304006,3,0,34.356446,50.422782,603111252222726622,71250
kokhanivka,kokhanivka;kokhanovka;krasnolyubetsk,village,Q4238838,2,0,32.9625839,47.1205813,588928411216481560,71022
sahaidachne,maksima gorkogo;sagaydachnoe;sahaidachne,village,Q4276100,2,0,33.3154562,47.0789918,588749787821961087,71022
mykhailiv,mikhaylov;mykhailiv;novaya kaluga,village,Q4322133,2,0,33.0515527,47.4058976,590153838400563361,71022
olzhyne,eygental;olgino;olzhyne;shyontal,village,Q4334109,2,0,33.4871328,47.4751377,590451221936573981,71022
nezlamne,landau;neslomlennoe;nezlamne;nezlamnoe;potyomkino,village,Q4375017,2,0,33.5720328,47.4851816,590494360588179905,71022
stiyke,chkalovo;stiyke;stoykoe,village,Q4516866,2,0,33.2076581,47.0667343,588697140112738922,71022
dornburg,chkalovo;dornburg,village,Q4516875,2,0,34.182145,46.4803266,586178541226567937,71022
kozatska sloboda,kazatskaya sloboda;knyaze grigorovka;kozatska sloboda,village,Q4224923,2,0,33.8561062,47.1127026,588894575465017194,71022
nadiivka,nadezhdovka;nadiivka;nadiovka,village,Q4311921,2,0,33.6439546,46.3969993,585820650191188659,71022
tykhyi lyman,pervomaevka;tikhiy liman;tikhy liman;tykhyi lyman,village,Q4349262,2,0,34.0985558,47.3294949,589825690015294076,71022
shchaslyve,maksima gorkogo;schastlivoe;schastlivoye;shchaslyve,village,Q7231062,2,0,33.2922667,46.1330699,584687083767370987,71022
siabry,novorossiyskoe;siabry;syabry,village,Q4325184,2,0,32.6305702,46.1135055,584603057026530346,71022
chumaky,chumaki;chumaky;suvorovka,village,Q4445170,2,0,32.1763759,46.2893702,585358387154619896,71022
kamianyi brid,kamenny brod;kamennyy brod;kamianyi brid,suburb,Q12108012,,0,39.3072603,48.5935377,595254713366240508,71971
fabrychne,fabrichnoe;fabrychne,village,Q4480356,,0,39.3300194,48.47945,594764709137397219,71971
vesela tarasivka,vesela tarasivka;vesela tarasovka;vesyolaya tarasovka,village,Q4109728,,0,39.155547,48.5418165,595032573362572379,71971
mylove,melovoe;mylove,village,Q4309371,2,0,33.6296622,47.0663185,588695357701733086,71022
krasnolutskyi,krasnoluchskiy;krasnoluchsky;krasnolutskyi,village,Q4238836,4,0,38.99082,48.14389,593323489911212260,71971
kniahynivka,kniahynivka;kniahynovka;knyaginevka,town,Q4224793,4,0,38.845425,48.11883,593215858030629105,71971
mius,mius,village,Q4297027,4,0,38.5467124,48.2883899,593944112685040152,71971
fashchivka,fashchevka;fashchivka;fashchovka,town,Q4481604,4,0,38.6024509,48.2748245,593885851453725651,71971
kruhlyk,kruglik;kruhlyk,hamlet,Q4241915,4,0,38.5039069,48.3419781,594174267097488099,71971
chornukhyne,chernukhino;chornukhyne,town,Q4514209,4,0,38.51558,48.326365,594107214068074620,71971
horodnie,gorodnee;horodnie,hamlet,Q4145269,4,0,38.8448238,48.3891503,594376873590083224,71971
timiriazieve,timiriazieve;timiryazevo,hamlet,Q4457421,4,0,38.7474757,48.299843,593993302945682004,71971
utkyne,utkino;utkyne,village,Q4478914,4,0,38.78986,48.3258973,594105204023654372,71971
novoselivka,novoselivka;novoselovka;novosyolovka,village,Q4325858,4,0,38.6975491,48.3886804,594374854955306829,71971
adrianopil,adrianopil;adrianopol,village,Q4057985,4,0,38.72552,48.3574964,594240920695176336,71971
petrivka,petriivka;petrivka;petrovka;pyotrovka,village,Q4361044,4,0,38.80594,48.533358,594996242233865908,71971
kamianka,kamenka;kamianka;kamjanka;kamyanka,village,Q4210979,4,0,38.7728064,48.5242119,594956960462943558,71971
troitske,troickoe;troitske;troitskoe;troitskoye,hamlet,Q4463605,4,0,38.9260415,48.4456702,594619625141734361,71971
malokostiantynivka,malokonstantinovka;malokostiantynivka;malokostiantynovka,village,Q4278345,4,0,38.909734,48.4387591,594589942622735398,71971
mykhailivka,mikhailovka;mikhaylovka;mykhailivka;mykhailovka;mykhaylivka;mykhaylovka,town,Q4297598,4,0,38.9088643,48.4831781,594780720775055552,71971
lozivskyi,lozivskyi;lozovskiy;lozovsky,town,Q4265644,4,0,38.8844253,48.5546237,595087579008461129,71971
kryvorizhzhia,krivorozhe;krivorozhye;kryvorizhzhia,village,Q4240837,4,0,38.8402373,48.5510853,595072379119156397,71971
karpaty,karpaty,village,Q4215650,4,0,38.8600373,48.508985,594891560996014597,71971
rodakove,rodakove;rodakovo,town,Q4395666,4,0,39.0285176,48.5581753,595102830437473318,71971
novodachne,novodachne;novodachnoe,village,Q4323573,4,0,39.0106809,48.590383,595241162744125049,71971
sukhodil,sukhodil;sukhodol,village,Q4447190,,0,39.0421111,48.5901663,595240230736253247,71971
romanchukove,romanchukove;romanchukovo,village,Q4397437,3,0,33.5380625,51.0560567,605831151931249935,71250
novyi,novy;novyi;novyy,village,Q4326543,4,0,38.5933077,48.493341,594824370527369244,71971
olenivka,olenivka;olenovka,village,Q4333621,4,0,38.5721023,48.4088136,594461329826719046,71971
verhulivka,vergulyovka;verhulivka;verhulovka,village,Q4107572,4,0,38.488208,48.3879917,594371900017597840,71971
borzhykivka,borzhikovka;borzhykivka;borzhykovka,village,Q4093634,4,0,38.470153,48.3943518,594399216009582345,71971
zorynsk,zorinsk;zorynsk,town,Q662097,4,0,38.6210833,48.4152154,594488821912429723,71971
krynychky,krinichki;krynichki;krynichky;krynychki;krynychky,town,Q572142,,0,34.4542584,48.3700396,594294796760666098,101746
svitlohirske,svetlogorskoe;svitlohirske,village,Q4410386,,0,34.508576,48.3446117,594185580037350432,101746
cherneche,cherneche,village,Q4513448,,0,34.4621558,48.3922746,594390291063533260,101746
chervonyi yar,chervoniy yar;chervonoy yar;chervony yar;chervonyi yar;chervonyy yar;krasniy yar;krasnyy yar,village,Q4512532,,0,34.4253361,48.3766093,594323010400804600,101746
novopidhirne,novopidhirne;novopodgornoe,village,Q4324956,,0,34.4317906,48.388755,594375177073588271,101746
zelenyi kut,zelenyi kut;zelyony kut;zelyonyy kut,village,Q4190893,,0,34.4543037,48.4184337,594502647407988768,101746
rohivske,rogovskoe;rohivske;rohovskoye,village,Q4395550,,0,34.4796833,48.4131117,594479789592064835,101746
stepanivka,stepanivka;stepanovka,village,Q4441908,,0,34.44888,48.4472755,594626522854734576,101746
novoselivka,novoselivka;novoselovka;novosyolovka,village,Q4325838,,0,34.4678586,48.4510161,594642586032440595,101746
hrymuche,gremuchee;hrymuche,village,Q4148545,,0,34.4085345,48.3585298,594245361687043415,101746
illinka,ilenka;ilinka;illinka;ilyinka,village,Q4199629,,0,34.4494032,48.3978113,594414072297438459,101746
odarivka,odarivka;odarovka,village,Q4331341,,0,34.4033115,48.3242486,594098125913164016,101746
auly,auly,town,Q2858004,,0,34.4657713,48.5506716,595070605293288683,101746
borysivka,borisovka;borysivka;borysovka;suin eli,hamlet,Q3920919,,0,36.2334703,45.1009032,580253960261301758,72639
prudnykove,kenegez;prudnikovo;prudnykove,hamlet,Q4382476,,0,36.0815835,45.1573683,580496475589518512,72639
vyaznikovo,sheykh asan;vyaznikovo,village,Q4130256,,0,36.2549707,45.1113825,580298967223618043,72639
rozovyi,rozovy;rozovyi;rozovyy,village,Q4396699,,0,34.3225599,44.6949019,578510199242247552,72639
yakovlivka,yakovlevka;yakovlivka;yakovlovka,village,Q4536989,,0,34.4590512,44.9853573,579757693968343723,72639
ihorivka,igorevka;ihorivka;ihorovka,hamlet,Q12073911,,0,33.8388169,45.1616835,580515012666125281,72639
sanatornoye,sanatornoe;sanatornoye,town,Q3888245,,0,33.8231461,44.4019612,577252027227090602,72639
vysokoye,vysokoe;vysokoye,locality,Q13642338,,0,35.0068998,44.9899591,579777459408387764,72639
mnohorichchia,mnogoreche;mnohorichchia,hamlet,Q4298900,,0,34.0736796,44.5582517,577923291961000272,72639
nyzhnia golubynka,nizhnyaya golubinka;nyzhnia golubynka,village,Q4319273,,0,33.894062,44.6040421,578119958513304494,72639
raduzhnoe,raduzhnoe,hamlet,Q4387942,,0,34.0198577,45.2966242,581094575553228562,72639
generalskoe,generalskoe,village,Q4135382,,0,34.4826345,44.8001821,578962373399330507,72639
novorybatske,novorybatske;novorybatskoe,village,Q4325207,,0,33.7725092,45.9233368,583786287391959261,72639
iskra,iskra,village,Q4203893,,0,34.1832436,45.2638896,580953984093924684,72639
yuzhnoe,yuzhnoe,village,Q4534031,,0,35.658237,45.1247675,580356455360278269,72639
karpova balka,karpova balka,village,Q4215859,,0,33.8062341,46.0587986,584368092251843738,72639
barsove,barsove;barsovo,locality,Q3920762,,0,34.93335,45.48348,581897115963203430,72639
utkino,kuchuk busterchi;utkino,village,Q4478911,,0,33.892565,45.95126,583906215763885525,72639
